region_administrative,departement,identifiant_museofile,commune,nom_officiel_du_musee,adresse,lieu,code_postal,telephone,url,latitude,longitude,ref_deps,geolocalisation,date_arrete_attribution_appellation
Île-de-France,Essonne,M0405,Etampes,musée municipal,Hôtel de ville,Hôtel de ville,91150,169926912,www.mairie-etampes.fr/le-musee/,48.434307,2.161909,9122301,"48.434307,2.161909",2003-02-01
Île-de-France,Hauts-de-Seine,M0407,Boulogne-Billancourt,musée départemental Albert-Kahn,"14, rue du Port",,92100,155192800,albert-kahn.hauts-de-seine.fr/,48.841354,2.227488,9201203,"48.841354,2.227488",2003-02-01
Île-de-France,Hauts-de-Seine,M0408,Boulogne-Billancourt,musée-jardin Paul Landowski,"14, rue Max-Blondat",,92100,01 55 1 8 46 42,www.boulognebillancourt.com/loisirs/culture/les-musees/musee-paul-landowski,48.844261,2.246847,9201202,"48.844261,2.246847",2003-02-01
Île-de-France,Hauts-de-Seine,M0412,Meudon,musée d'art et d'histoire,"11, rue des Pierres",Maison d'Armande Béjart,92190,146238713,musee.meudon.fr/,48.806412,2.234894,9204801,"48.806412,2.234894",2003-02-01
Île-de-France,Hauts-de-Seine,M1219,Saint-Cloud,musée du Grand Siècle,Caserne Sully,,92210,764331589,https://museedugrandsiecle.hauts-de-seine.fr/,48.83901,2.21992,,"48.83901,2.21992",2022-12-20
Île-de-France,Paris,M1102,Paris,maison de Balzac,47 rue Raynouard,Hôtel particulier,75016,155744180,www.maisondebalzac.paris.fr/,48.855398,2.280805,7511616,"48.855398,2.280805",2004-07-08
Île-de-France,Paris,M1109,Paris,musée de la Libération de Paris - musée du général Leclerc - musée Jean Moulin,23 allée de la 2ème Division Blindée,Jardin Atlantique,75015,140643944,www.museeliberation-leclerc-moulin.paris.fr/,48.840614,2.319773,7511503,"48.840614,2.319773",2004-07-08
Île-de-France,Paris,M5071,Paris,musée des Plans-reliefs,129 rue de Grenelle,Hôtel national des Invalides,75007,145519505,www.museedesplansreliefs.culture.fr/,48.858219,2.312885,7510702,"48.858219,2.312885",2002-01-06
Île-de-France,Paris,M5084,Paris,musée national de l'histoire et des cultures de l'immigration,,,75012,153595860,www.histoire-immigration.fr/,48.836753,2.390394,7511202,"48.836753,2.390394",2006-11-17
Île-de-France,Paris,M1115,Paris,musée Zadkine,100 bis rue d'Assas,,75006,143269190,www.zadkine.paris.fr/,48.842793,2.333457,7510608,"48.842793,2.333457",2004-07-08
Île-de-France,Paris,M5026,Paris,musée national de la marine,"17, place du Trocadéro",Palais de Chaillot,75116,153656969,www.musee-marine.fr/,48.86425,2.293754,7511618,"48.86425,2.293754",2002-01-06
Île-de-France,Paris,M5039,Paris,musée Jean-Jacques Henner,"43, avenue de Villiers",,75017,147634273,www.musee-henner.fr/,48.883045,2.307689,7511701,"48.883045,2.307689",2002-01-06
Île-de-France,Paris,M1076,Paris,musée de l'assistance publique - hôpitaux de Paris,10 rue des Fossés-Saint-Marcel,,75005,140275005,www.aphp.fr/musee,48.838805,2.356007,7510517,"48.838805,2.356007",2002-10-02
Île-de-France,Paris,M5003,Paris,musée du Moyen Âge - thermes et hôtel de Cluny,"6, place Paul Painlevé",Hôtel de Cluny,75005,153737800,www.musee-moyenage.fr/,48.850437,2.344553,7510501,"48.850437,2.344553",2002-01-06
Île-de-France,Paris,M7003,Paris,muséum national d'histoire naturelle,"2, rue Buffon",Jardin des Plantes,75005,140793890,www.mnhn.fr/fr/collections/ensembles-collections/vertebres/anatomie-comparee,48.842168,2.359933,7510508,"48.842168,2.359933",2002-01-06
Île-de-France,Paris,M5044,Paris,musée Rodin,77 rue de Varenne,Hôtel Biron,75007,144186110,www.musee-rodin.fr/,48.855868,2.31598,7510703,"48.855868,2.31598",2002-01-06
Île-de-France,Seine-et-Marne,M0373,Coupvray,maison natale de Louis Braille,"13, rue Louis Braille",,77400,160048280,museelouisbraille.com/,48.867372,2.712931,7713201,"48.867372,2.712931",2003-02-01
Île-de-France,Seine-et-Marne,M0374,Crécy-la-Chapelle,musée municipal,s'adresser à la mairie,,77580,,,48.85813263142596,2.908441509296712,7714201,"48.85813263142596,2.908441509296712",2003-02-01
Île-de-France,Seine-et-Marne,M0379,Melun,musée de Melun,5 rue du Franc Mûrier,,77000,164797770,www.ville-melun.fr/temps-libre/musee-d-art-et-d-histoire-de-la-ville-de-melun/232-presentation-du-musee,48.536398,2.658972,7728802,"48.536398,2.658972",2003-02-01
Île-de-France,Seine-et-Marne,M0384,Saint-Cyr-sur-Morin,musée des pays de Seine-et-Marne,"17, avenue de la Ferté-sous-Jouarre",,77750,160244600,www.musee-seine-et-marne.fr/fr,48.90803,3.18169,7740501,"48.90803,3.18169",2003-02-01
Île-de-France,Seine-Saint-Denis,M5024,Le Bourget,musée de l'air et de l'espace,BP 173,aéroport de Paris - Le Bourget,93352,149927000,www.museeairespace.fr/,48.94681950649236,2.4355624358692265,9301301,"48.94681950649236,2.4355624358692265",2002-01-06
Île-de-France,Seine-Saint-Denis,M0422,Saint-Denis,musée d'art et d'histoire Paul Eluard,"22 bis, rue Gabriel Peri",,93200,142430510,musee-saint-denis.com/,48.932336,2.355796,9306601,"48.932336,2.355796",2003-02-01
Île-de-France,Yvelines,M0388,Jouy-en-Josas,musée de la toile de Jouy,"54, rue Charles de Gaulle",Château de l'Eglantine,78350,139564864,www.museedelatoiledejouy.fr/,48.768986,2.153216,7832201,"48.768986,2.153216",2003-02-01
Île-de-France,Yvelines,M0391,Maule,musée Victor Aubert,,"24, rue Quincampoix",78580,130906149,museeaubertmaule.free.fr/,48.908246,1.847178,7838001,"48.908246,1.847178",2003-02-01
Île-de-France,Yvelines,M0395,Rambouillet,musée Rambolitrain,"4, place Jeanne d'Arc","4, place Jeanne d'Arc",78120,175034460,www.rambolitrain.com/,48.646025,1.823892,7851702,"48.646025,1.823892",2003-02-01
Île-de-France,Yvelines,M0396,Saint-Germain-en-Laye,musée départemental Maurice Denis,"2bis, rue Maurice Denis",,78100,139078787,www.musee-mauricedenis.fr/,48.892495,2.087541,7855101,"48.892495,2.087541",2003-02-01
Île-de-France,Yvelines,M0399,Saint-Rémy-lès-Chevreuse,collections de la fondation de Coubertin,Conservation des collections,Domaine de Coubertin,78470,130856989,/www.coubertin.fr/,48.706544,2.069096,7857501,"48.706544,2.069096",2003-02-01
Normandie,Calvados,M0666,Orbec,musée municipal le vieux manoir,107 rue Grande,Le Vieux-Manoir,14290,231325889,lisieux-normandie.fr/culture/musee-dorbec/,49.022096,0.406804,1447801,"49.022096,0.406804",2003-02-01
Normandie,Calvados,M0670,Tilly-sur-Seulles,musée de la bataille de Tilly-sur-Seulles,Chapelle Notre-Dame-du-Val,,14250,231809210,seulles-terre-mer.fr/tourisme/sites_et_musees.html,49.177537,-0.612546,1469201,"49.177537,-0.612546",2003-02-01
Normandie,Calvados,M1077,Vieux,musée et sites archéologiques de Vieux-la-Romaine,13 chemin Haussé,,14930,231711020,www.vieuxlaromaine.fr/accueil.html,49.105412,-0.431321,1474701,"49.105412,-0.431321",2003-02-01
Normandie,Calvados,M7063,Villers-sur-Mer,musée paléontologique,5 avenue Jean Moulin,,14640,231817760,www.paleospace-villers.fr/,49.328057,0.013729,1475401,"49.328057,0.013729",2003-02-01
Normandie,Calvados,M0672,Vire,musée municipal,2 place Sainte-Anne,,14500,231666650,www.virenormandie.fr/sport-culture-et-loisirs/culture-et-loisirs/musee/,48.835996,-0.888245,1476201,"48.835996,-0.888245",2003-02-01
Normandie,Eure,M0703,Evreux,musée de l'ancien évêché,6 rue Charles Corbeau,Ancien évêché,27000,232318190,evreux.fr/sortir/culture/musee-evreux/,49.023998,1.1502,2722901,"49.023998,1.1502",2003-02-01
Normandie,Eure,M0708,Vernon,musée Alphonse-Georges Poulain,12 rue du Pont,Ancien Hôtel Particulier,27200,232212809,www.vernon27.fr/la-ville/culture/musee/,49.094855,1.484927,2768101,"49.094855,1.484927",2003-02-01
Normandie,Manche,M0678,Cherbourg,musée Emmanuel Liais,19 ter rue Bonhomme,Parc Emanuel Liais,50100,233535161,www.cherbourg.fr/infos-services/culture-et-loisirs/musees/museum-emmanuel-liais-320.html?L=114,49.6429,-1.630729,5012901,"49.6429,-1.630729",2003-02-01
Normandie,Manche,M0682,Granville,musée d'Art et d'Histoire de Granville,2 rue Lecarpentier,Logis du Roi,50400,233504410,www.ville-granville.fr/a-voir-a-faire-a-granville/vie-culturelle-et-artistique/musee-dart-et-dhistoire/,48.837248,-1.602814,5021802,"48.837248,-1.602814",2003-02-01
Normandie,Manche,M0691,Valognes,musée régional du cidre et du calvados,Rue du Petit-Versailles,,50700,675898952,www.mairie-valognes.fr/decouvrir-valognes/musee-regional-cidre/,49.505993,-1.470416,5061501,"49.505993,-1.470416",2003-02-01
Normandie,Manche,M0693,Villedieu-les-Poêles,musée de la poêlerie,25 rue du Général Huard,Cour du Foyer,50800,233693344,www.museesvilledieu.sitew.com/,48.840754,-1.221648,5063901,"48.840754,-1.221648",2003-02-01
Normandie,Orne,M0697,La Ferté-Macé,musée municipal - musée du jouet,,32 rue de la Victoire,61200,233370408,lafertemace.fr/musee-municipal/,48.59056896905563,-0.3590626630746374,6116801,"48.59056896905563,-0.3590626630746374",2003-02-01
Normandie,Orne,M0700,Sées,musée départemental d'art sacré,Place du Général de Gaulle,Sées,61500,233812300,www.ville-sees.fr/visiter-sees/le-musee-dart-religieux/,48.605422,0.171614,6146401,"48.605422,0.171614",2003-02-01
Normandie,Seine-Maritime,M0715,Fécamp,"Les Pêcheries, musée de Fécamp",3 quai capitaine Jean Recher,,76400,235283199,www.ville-fecamp.fr/-Musee-.html,49.76179,0.36825,7625901,"49.76179,0.36825",2003-02-01
Normandie,Seine-Maritime,M0718,Le Havre,musée de l'ancien Havre,1 rue Jérôme Bellarmato,,76600,235422790,www.lehavre.fr/que-faire-au-havre/hotel-dubocage-de-bleville,49.488805,0.114474,7635103,"49.488805,0.114474",2003-02-01
Normandie,Seine-Maritime,M0724,Lillebonne,musée municipal,7 rue Victor Hugo,Square Jean Rostand,76170,232840207,musee-juliobona.fr/,49.517842,0.535803,7638401,"49.517842,0.535803",2003-02-01
Normandie,Seine-Maritime,M5067,Rouen,musée national de l'éducation,185 rue Eau-de-Robec,Maison des Quatre Fils Aymon,76000,235076661,hwww.reseau-canope.fr/musee/,49.441397,1.101667,7654002,"49.441397,1.101667",2002-01-06
Normandie,Seine-Maritime,M0731,Rouen,musée Pierre Corneille,"4, rue de la Pie",,76000,235716392,museepierrecorneille.fr/fr,49.443051,1.086748,7654009,"49.443051,1.086748",2003-02-01
Nouvelle-Aquitaine,Charente-Maritime,M0823,Esnandes,musée de la mytiliculture,Parvis de l'église,,17137,546013464,www.esnandes.fr/tourisme-patrimoine/maison-de-la-baie-du-marais-poitevin,46.250245,-1.111861,1715301,"46.250245,-1.111861",2003-02-01
Nouvelle-Aquitaine,Charente-Maritime,M0830,Rochefort,musée d'art et d'histoire,63 avenue de Gaulle,,17300,546829160,www.ville-rochefort.fr/hebre-musee-et-patrimoine-0,45.935666,-0.962523,1729903,"45.935666,-0.962523",2002-03-28
Nouvelle-Aquitaine,Charente-Maritime,M0831,Rochefort,musée de la maison de Pierre Loti,"141, rue Pierre Loti",,17300,546991688,www.maisondepierreloti.fr/,45.934295,-0.962724,1729902,"45.934295,-0.962724",2002-03-28
Nouvelle-Aquitaine,Deux-Sèvres,M0841,Niort,musée Bernard d'Agesci,"28, avenue de Limoges",,79000,549787200,www.niortagglo.fr/fr/sortir-visiter/patrimoine-et-musees/musee-bernard-dagesci/index.html,46.321065,-0.454107,7919104,"46.321065,-0.454107",2003-02-01
Nouvelle-Aquitaine,Deux-Sèvres,M0843,Parthenay,musée d'art et d'histoire Georges Turpin,1 rue Vau Saint-Jacques,,79200,549949027,www.cc-parthenay-gatine.fr/musee-parthenay,46.652064,-0.24942,7920201,"46.652064,-0.24942",2003-02-01
Nouvelle-Aquitaine,Deux-Sèvres,M0845,Thouars,musée d'art et d'histoire Henri Barré,7 rue Marie de la Tour,Musée,79100,549663697,thouarsetmoi.fr/ville-dhistoire/patrimoine-et-musee/,46.973531,-0.217936,7932901,"46.973531,-0.217936",2003-02-01
Nouvelle-Aquitaine,Dordogne,M0052,Domme,musée Paul Reclus,Place de la Halle,Maison particulière donnée à la mairie,24250,553317100,www.sarlat.info/decouvrir/musees/musee-paul-reclus-a-domme/,44.803211,1.214147,2415201,"44.803211,1.214147",2003-02-01
Nouvelle-Aquitaine,Dordogne,M0054,Mussidan,musée des arts et traditions populaires,2-6 rue Raoul-Grassin,Chartreuse,24400,553812355,museevoulgre.fr/,45.037634,0.361673,2429901,"45.037634,0.361673",2003-02-01
Nouvelle-Aquitaine,Dordogne,M0055,Nontron,musée départemental de la poupée et du jouet,Avenue du Général Leclerc,Hôtel Particulier,24300,553562080,,45.527264,0.660717,2431101,"45.527264,0.660717",2003-02-01
Nouvelle-Aquitaine,Dordogne,M1188,Périgueux,musée gallo-romain de Vésunna,20 rue du 26e Régiment d'infanterie,Parc de Vésone,24000,553530092,www.perigueux-vesunna.fr/,45.179999,0.71269,2432203,"45.179999,0.71269",2009-11-19
Nouvelle-Aquitaine,Gironde,M0062,Blasimon,musée archéologique,,Mairie,33540,556715212,,44.748299,-0.074554,3305701,"44.748299,-0.074554",2003-02-01
Nouvelle-Aquitaine,Gironde,M0068,Bordeaux,centre national Jean Moulin,48 rue Vital Carles,,33000,556101990,www.bordeaux.fr/p63906/centre-jean-moulin,44.838651,-0.577869,3306309,"44.838651,-0.577869",2003-02-01
Nouvelle-Aquitaine,Gironde,M0073,Libourne,musée historique du vieux Libourne,s'adresser à la mairie,,33500,557553322,www.libourne.fr/information-transversale/annuaires/annuaire-des-associations/societe-historique-et-archeologique-384,44.914803303323666,-0.24517994951765779,3324302,"44.914803303323666,-0.24517994951765779",2003-02-01
Nouvelle-Aquitaine,Landes,M0082,Montfort-en-Chalosse,musée des arts et traditions populaires de la Chalosse,480 chemin de Sala,Domaine de Carcher,40380,558986927,www.museedelachalosse.fr/,43.715749,-0.833916,4019401,"43.715749,-0.833916",2003-02-01
Nouvelle-Aquitaine,Landes,M0084,Saint-Sever,musée d'Art et d'Histoire du Cap de Gascogne,Rue Lamarques,Couvent des Jacobins,40500,558763464,www.saint-sever.fr/Histoire-et-Patrimoine/Les-monuments/Le-couvent-des-Jacobins,43.758542,-0.572168,4028201,"43.758542,-0.572168",2003-02-01
Nouvelle-Aquitaine,Landes,M0085,Sanguinet,musée archéologique,Place de la Mairie,,40460,05 58 78 02 33 (musée) ou 05 58 78 11 82 (mairie en dehors des périodes d'ouverture),www.musee-lac-sanguinet.fr/,44.483822,-1.075791,4028701,"44.483822,-1.075791",2003-02-01
Nouvelle-Aquitaine,Pyrénées-Atlantiques,M0093,Bayonne,musée basque,37 quai des Corsaires,Maison Dagourette,64100,559590898,www.musee-basque.com/,43.491093,-1.473823,6410201,"43.491093,-1.473823",2003-02-01
Nouvelle-Aquitaine,Vienne,M0850,Loudun,musée Charbonneau-Lassay,24 rue du Martray,,86200,549988158,www.ville-loudun.fr/services-au-public/culture/les-musees,47.009976,0.075743,8613701,"47.009976,0.075743",2003-02-01
Nouvelle-Aquitaine,Vienne,M7057,Poitiers,collection d'histoire naturelle,"1, Place de la Cathédrale",,86000,549503308,,46.580584,0.348113,8619406,"46.580584,0.348113",2003-02-01
Nouvelle-Aquitaine,Vienne,M0852,Poitiers,musée Sainte-Croix,3 bis rue Jean Jaurès,,86000,549410753,www.poitiers.fr/c__231_977__Accueil_musee_Sainte_Croix.html,46.581142,0.344434,8619402,"46.581142,0.344434",2002-01-06
Occitanie,Aude,M0442,Lastours,musée municipal,1 Route des Fournes,,11600,468116640,,43.333993,2.379223,1119401,"43.333993,2.379223",2003-02-01
Occitanie,Aveyron,M0553,Salles-la-Source,musée des arts et métiers,Cour de la Filature,,12330,565672896,musees.aveyron.fr/thematiques/mus%C3%A9e%20de%20salles%20la%20source,44.430577,2.483923,1225401,"44.430577,2.483923",2003-02-01
Occitanie,Gard,M0449,Alès,musée du Colombier,rue Jean Mayodon,,30100,466863040,www.museeducolombier.fr,44.129352,4.080982,3000702,"44.129352,4.080982",2003-02-01
Occitanie,Gard,M0450,Bagnols-sur-Cèze,musée Léon Alègre,24 avenue Paul Langevin,,30200,466897400,musees.gard.fr/decouvrir-les-musees/musee-leon-alegre/presentation.html,44.164822,4.621051,3002802,"44.164822,4.621051",2003-02-01
Occitanie,Gard,M0457,Nîmes,musée des beaux-arts,rue  Cité-Foulc,,30000,04 66 76 71 82 (accueil) 04 66 76 71 91 (conservation),www.nimes.fr/culture/musees-planetarium/musee-des-beaux-arts.html,43.832001,4.36081,3018905,"43.832001,4.36081",2003-02-01
Occitanie,Gard,M7051,Nîmes,muséum d'histoire naturelle et de préhistoire,13 Boulevard Courbet,,30033,466767345,nimes.fr/culture/musees-planetarium/museum-musee-dhistoire-naturelle.html,43.83798099757179,4.363712139325677,3018901,"43.83798099757179,4.363712139325677",2002-01-06
Occitanie,Gard,M0463,Uzès,musée municipal Georges Borias,Place de l'Evêché,Ancien Evêché,30701,466224023,uzesmusee.blogspot.com/,44.01264172485314,4.422302423935738,3033401,"44.01264172485314,4.422302423935738",2003-02-01
Occitanie,Gard,M0464,Villeneuve-les-Avignon,musée Pierre de Luxembourg,3 rue de la République,,30400,490274966,musees.gard.fr/decouvrir-les-musees/musee-pierre-de-luxembourg/presentation.html,43.965433,4.796403,3035101,"43.965433,4.796403",2003-02-01
Occitanie,Haute-Garonne,M0556,Aurignac,musée-forum de l'Aurignacien,Avenue de Bénabarre,,31420,561909072,www.musee-aurignacien.com/,43.216166,0.88003,3102801,"43.216166,0.88003",2003-02-01
Occitanie,Haute-Garonne,M0567,Toulouse,musée du vieux Toulouse,7 rue du May,,31000,562271150,www.toulouse.fr/web/cultures/musees#/annuaire-des-lieux/176/H%C3%B4tel%20Dumay%20-%20Mus%C3%A9e%20du%20Vieux%20Toulouse?_k=u67xpi,43.602258,1.443132,3155506,"43.602258,1.443132",2003-02-01
Occitanie,Hautes-Pyrénées,M7022,Bagnères-de-Bigorre,muséum d'histoire naturelle,Vallon de Salut-Rue Jean Rösch,Anciens Thermes de Salut,65200,562953935,www.ville-bagneresdebigorre.fr/musees,43.051963,0.147001,6505905,"43.051963,0.147001",2003-02-01
Occitanie,Hautes-Pyrénées,M0589,Luz-Saint-Sauveur,musée municipal,,Presbytère,65120,562923588,,42.870941,-0.002108,6529501,"42.870941,-0.002108",2003-02-01
Occitanie,Hautes-Pyrénées,M0591,Tarbes,musée Massey,,Jardin Massey,65000,562363149,www.tarbes.fr/mes-loisirs/tarbes-culture/musee-massey/,43.232141,0.073892,6544001,"43.232141,0.073892",2002-10-06
Occitanie,Hérault,M0476,Montpellier,musée Fabre,39 boulevard Bonne-Nouvelle,,34000,467148300,museefabre.montpellier3m.fr/,43.61135,3.880685,3417203,"43.61135,3.880685",2002-01-06
Occitanie,Lot,M0579,Labastide-Murat,musée Murat,place de l'Eglise,,46240,565211923,musees.lot.fr/node/136,44.645658,1.568198,4613801,"44.645658,1.568198",2003-02-01
Occitanie,Pyrénées-Orientales,M0492,Perpignan,musée Joseph Puig,"42, avenue de Grande-Bretagne",Villa les Tilleuls,66000,468623764,www.mairie-perpignan.fr/culture-patrimoine/culture/musees/musee-des-monnaies-et-medailles-joseph-puig,42.69945,2.883256,6613602,"42.69945,2.883256",2003-02-01
Occitanie,Pyrénées-Orientales,M7055,Perpignan,muséum d'histoire naturelle,Place Fontaine neuve,Hôtel çagarriga,66931,468663068,www.mairie-perpignan.fr/culture-patrimoine/musees,42.697731358540544,2.900461442325304,6613604,"42.697731358540544,2.900461442325304",2003-02-01
Occitanie,Tarn,M7037,Gaillac,musée d'histoire naturelle Philadelphe-Thomas,Place Philadelphe Thomas,,81600,563573631,www.ville-gaillac.fr/culture/museum-dhistoire-naturelle-philadelphe-thomas,43.89944,1.89408,8109902,"43.89944,1.89408",2003-02-01
Occitanie,Tarn,M0600,Labastide-Rouairoux,musée du textile,Rue de la Rive,,81270,563980860,musees-departementaux.tarn.fr/index.php?id=textile-presentation,43.476776,2.638539,8111501,"43.476776,2.638539",2003-02-01
Occitanie,Tarn-et-Garonne,M0607,Montauban,musée Ingres Bourdelle,"19, rue de l'Hôtel de Ville BP 752",Ancien Palais Episcopal,82000,563221292,www.montauban.com/culture-et-sports/culture/musee-ingres-bourdelle,44.017091,1.35188,8212102,"44.017091,1.35188",2002-01-06
Pays-de-la-Loire,Loire-Atlantique,M0743,Nantes,musées des beaux-arts,10 rue Georges Clémenceau,,44000,251174500,museedartsdenantes.nantesmetropole.fr/home.html,47.219276,-1.547096,4410902,"47.219276,-1.547096",2002-01-06
Pays-de-la-Loire,Maine-et-Loire,M0751,Angers,musée Jean Lurcat et de la tapisserie contemporaine,4 boulevard Arago,Hôpital Saint-Jean,49100,241241845,musees.angers.fr/les-lieux/musee-jean-lurcat-et-de-la-tapisserie-contemporaine/le-lieu/index.html,47.477759,-0.557052,4900703,"47.477759,-0.557052",2003-02-01
Pays-de-la-Loire,Maine-et-Loire,M0753,Beaufort-en-Vallée,musée Joseph Denais,"Place Notre-Dame, Beaufort-en-Vallée",,49250,241574050,3museesinsolitesenanjou.com/musee-joseph-denais/,47.44022,-0.217749,4902101,"47.44022,-0.217749",2002-10-06
Pays-de-la-Loire,Sarthe,M1131,Saint-Calais,bibliothèque-musée,Place de l'hôtel de ville,Centre culturel,72120,243356303,www.saint-calais.fr/musee-bibliotheque-fonds-ancien-et-cabinets-curieux/,47.920368,0.743518,7226901,"47.920368,0.743518",2003-02-01
Pays-de-la-Loire,Vendée,M0779,Montaigu,musée du nord Vendée,Place de l'Hôtel de Ville,Pavillon des Nourrices,85600,251092121,,46.974635,-1.313386,8514601,"46.974635,-1.313386",2003-02-01
Provence-Alpes-Côte-d'Azur,Alpes-Maritimes,M0867,Antibes,musée Picasso,Place Mariejol,Château Grimaldi,6600,492905428,www.antibes-juanlespins.com/culture/musee-picasso,43.580973,7.127959,600401,"43.580973,7.127959",2003-02-01
Provence-Alpes-Côte-d'Azur,Alpes-Maritimes,M0875,Grasse,musée d'art et d'histoire de Provence,2 rue Mirabeau,,6130,493368020,www.museesdegrasse.com/mahp/presentation,43.657615,6.922508,606902,"43.657615,6.922508",2003-02-01
Provence-Alpes-Côte-d'Azur,Alpes-Maritimes,M0874,Menton,musée de préhistoire régionale,"20, rue Lorédan-Larchey",,6500,493358464,www.menton.fr/Musee-de-Prehistoire-Regionale.html?oaq%5Bwhat%5D=Mus%C3%A9e%20de%20Pr%C3%A9histoire,43.776334,7.503564,608303,"43.776334,7.503564",2003-02-01
Provence-Alpes-Côte-d'Azur,Alpes-Maritimes,M0888,Nice,musée d'art moderne et d'art contemporain,Place Yves Klein,,6364,497134201,www.mamac-nice.org/fr/,43.701774652556004,7.278984299489203,608813,"43.701774652556004,7.278984299489203",2003-02-01
Provence-Alpes-Côte-d'Azur,Alpes-Maritimes,M0885,Nice,musée de paléontologie de Terra Amata,25 boulevard Carnot,,6300,493555993,www.nice.fr/fr/culture/musees-et-galeries/presentation-du-musee-terra-amata,43.698046,7.288686,608810,"43.698046,7.288686",2003-02-01
Provence-Alpes-Côte-d'Azur,Alpes-Maritimes,M0887,Nice,musée du palais Lascaris,15 rue Droite,,6300,493627240,www.nice.fr/fr/culture/musees-et-galeries/palais-lascaris-le-palais,43.697686,7.27733,608808,"43.697686,7.27733",2003-02-01
Provence-Alpes-Côte-d'Azur,Alpes-Maritimes,M0882,Nice,musée du vieux logis,59 avenue Saint Barthélémy,,6000,493884474,www.nice.fr/fr/culture/musees-et-galeries/prieure-du-vieux-logis,43.740194,7.238038,608809,"43.740194,7.238038",2003-02-01
Provence-Alpes-Côte-d'Azur,Alpes-Maritimes,M0890,Puget-Rostang,écomusée de la Roudoule,Place des Tilleuls,,62060,493051325,www.roudoule.com/,43.97425297359047,6.919841120393623,609801,"43.97425297359047,6.919841120393623",2003-02-01
Provence-Alpes-Côte-d'Azur,Alpes-Maritimes,M0892,Vallauris,musée Magnelli - musée de la céramique,Place de la Libération,Château-musée de Vallauris,6220,493647183,www.vallauris-golfe-juan.fr/-Le-musee-Magnelli-musee-de-la-.html,43.579971,7.052887,615501,"43.579971,7.052887",2003-02-01
Provence-Alpes-Côte-d'Azur,Bouches-du-Rhône,M1215,Aix-en-Provence,fondation Vasarely,"1, Avenue Marcel Pagnol",CS 50490,13096,442200109,www.fondationvasarely.org/,43.5212929153,5.42464477906,,"43.5212929153,5.42464477906",2020-12-10
Provence-Alpes-Côte-d'Azur,Bouches-du-Rhône,M0897,Aix-en-Provence,musée des tapisseries,"28, place des Martyrs de la Résistance",Palais de l'Ancien Archevêché,13100,488717415,www.aixenprovence.fr/Musee-des-Tapisseries,43.531366,5.447546,1300103,"43.531366,5.447546",2003-02-01
Provence-Alpes-Côte-d'Azur,Bouches-du-Rhône,M0903,Arles,musée camarguais,Parc naturel régional de Camargue,Mas du Pont de Rousty,13200,490971082,museedelacamargue.com/,43.67679,4.61542,1300402,"43.67679,4.61542",2003-02-01
Provence-Alpes-Côte-d'Azur,Bouches-du-Rhône,M0901,Arles,musée de l'Arles antique,Presqu'île du cirque romain,Arles cedex,13635,413315103,www.arles-antique.departement13.fr/,43.672753063626814,4.617175830175759,1300405,"43.672753063626814,4.617175830175759",2003-02-01
Provence-Alpes-Côte-d'Azur,Bouches-du-Rhône,M0906,Istres,musée René Beaucaire,Métropole Aix Marseille Provence / Istres Ouest Provence,"Le Rouquier, Istres Cedex",13808,442112773,www.musees-mediterranee.org/portail/index.php?menu=1&num_musee=18,43.50979987780633,4.9911014111253635,1304701,"43.50979987780633,4.9911014111253635",2003-02-01
Provence-Alpes-Côte-d'Azur,Bouches-du-Rhône,M0907,La Ciotat,musée ciotaden,1 quai Ganteaume,,13600,442714099,www.museeciotaden.org/,43.173755,5.60973,1302801,"43.173755,5.60973",2003-02-01
Provence-Alpes-Côte-d'Azur,Bouches-du-Rhône,M0915,Marseille,musée Cantini,19 rue Grignan,,13006,491547775,musees.marseille.fr/musee-cantini-0,43.292383,5.378137,1320601,"43.292383,5.378137",2003-02-01
Provence-Alpes-Côte-d'Azur,Bouches-du-Rhône,M1168,Saint-Rémy-de-Provence,musée Estrine,8 rue Lucien Estrine,Hôtel Estrine,13210,490923472,musee-estrine.fr/,43.788801,4.832266,1310002,"43.788801,4.832266",2007-03-26
Provence-Alpes-Côte-d'Azur,Bouches-du-Rhône,M0928,Salon-de-Provence,musée de Salon et de la Crau,avenue Roger Donnadieu,,13300,490562837,www.salondeprovence.fr/index.php/salon-a-de-la-crau,43.64095,5.104363,1310302,"43.64095,5.104363",2003-02-01
Provence-Alpes-Côte-d'Azur,Var,M0935,Draguignan,musée des arts et traditions populaires de moyenne Provence,75 place georges brassens,,83300,494470572,culture.dracenie.com/musee-des-arts-et-traditions-populaires/,43.538282,6.463862,8305003,"43.538282,6.463862",2003-02-01
Provence-Alpes-Côte-d'Azur,Var,M0933,Draguignan,musée des Beaux-Arts,9 rue de la République,,83300,498102685,www.ville-draguignan.fr/actionmunicipale/culture,43.537982,6.464818,8305001,"43.537982,6.464818",2003-02-01
Provence-Alpes-Côte-d'Azur,Var,M1182,Fréjus,musée d'archéologie gallo-romaine du Var,Place Calvini,,83600,3494521578,www.ville-frejus.fr/fr/decouvrir-et-sortir/histoire-et-patrimoine/musees-et-monuments/musee-archeologique/,43.43347344413099,6.736489013507804,,"43.43347344413099,6.736489013507804",2008-06-23
Provence-Alpes-Côte-d'Azur,Var,M0942,Solliès-Ville,musée Jean Aicard,3 rue Marseillaise,,83210,494337202,solliesville.fr/les-musees/,43.181724,6.039364,8313201,"43.181724,6.039364",2003-02-01
Provence-Alpes-Côte-d'Azur,Vaucluse,M0955,Cucuron,musée Marc Deydier,rue de l'Eglise,,84160,490772502,cucuron.fr/vie-culturelle/musee-marc-deydier/,43.772678,5.440606,8404201,"43.772678,5.440606",2003-02-01
Provence-Alpes-Côte-d'Azur,Vaucluse,M0960,Sault,musée municipal,,,84390,490640230,,44.091143,5.408027,8412301,"44.091143,5.408027",2003-02-01
Territoires et départements d'outre-mer,Guadeloupe,M1060,Le Moule,musée précolombien Edgar Clerc,,Parc de la Rosette,97136,590235757,,15.850088,-61.646677,9711701,"15.850088,-61.646677",2003-02-01
Territoires et départements d'outre-mer,Guadeloupe,M7056,Pointe-à-Pitre,musée l'Herminier,s'adresser à l'office du tourisme,,97163,590820930,,16.238507302787937,-61.536727081391085,9712003,"16.238507302787937,-61.536727081391085",2003-02-01
Territoires et départements d'outre-mer,Guadeloupe,M1062,Pointe-à-Pitre,musée Saint-John-Perse,9 rue de Nozières,,97110,590105178,,16.236416,-61.535945,9712001,"16.236416,-61.535945",2002-12-12
Territoires et départements d'outre-mer,Martinique,M1066,Fort-de-France,musée régional d'histoire et d'ethnologie,10 boulevard du Général de Gaulle,,97200,596728187,www.martinique.org/node/24376/PCUMAR972V5000OO/detail/fort-de-france/musee-regional-d-histoire-et-d-ethnographie?page=2,14.606106,-61.065619,9720902,"14.606106,-61.065619",2003-02-01
Territoires et départements d'outre-mer,Martinique,M1067,Les Trois-Ilets,maison de la canne,Quartier Vatable,,97229,596683204,www.martinique.org/node/24376/PCUMAR972V50084M/detail/les-trois-ilets/la-maison-de-la-canne,14.531893,-61.026775,9723101,"14.531893,-61.026775",2003-02-01
Auvergne-Rhône-Alpes,Ain,M0971,Pont-de-Vaux,musée Chintreuil,66 rue Maréchal de Lattre-de-Tassigny,,1190,385514575,www.musee-chintreuil.com/,46.430076,4.938125,130501,"46.430076,4.938125",2003-02-01
Auvergne-Rhône-Alpes,Ain,M0974,Seyssel,musée du bois,place de la République,Mairie,1420,04 50 56 21 55 (mairie),,45.959038,5.831489,140701,"45.959038,5.831489",2003-02-01
Auvergne-Rhône-Alpes,Allier,M0102,Cérilly,musée Charles-Louis Philippe,5 rue Charles-Louis-Philippe,,3350,470675200,https://charles-louis-philippe.fr/,46.617913,2.823245,304801,"46.617913,2.823245",2003-02-01
Auvergne-Rhône-Alpes,Allier,M0104,Montluçon,musée des musiques populaires (vieux château),3 rue Notre Dame,,3100,470021960,www.mupop.fr/,46.341009,2.605724,318501,"46.341009,2.605724",2003-02-01
Auvergne-Rhône-Alpes,Allier,M5083,Moulins-sur-Allier,centre national du costume de scène et de la scénographie,Quartier Villars,Quartier Villars,3000,470207620,www.cncs.fr/,46.560973,3.335798,319002,"46.560973,3.335798",2009-11-19
Auvergne-Rhône-Alpes,Allier,M0108,Souvigny,musée Saint-Marc,place Aristide Briand,BP 27,3210,470439975,www.ville-souvigny.com/Musee/index.html,46.534866,3.192356,327501,"46.534866,3.192356",2003-02-01
Auvergne-Rhône-Alpes,Ardèche,M7058,Privas,musée de la terre ardéchoise,2 place des Récollets,,7000,475644369,,44.735836,4.594922,718601,"44.735836,4.594922",2003-02-01
Auvergne-Rhône-Alpes,Cantal,M0110,Aurillac,musée d'art et d'archéologie,37 rue des Carmes,Centre culturel Pierre Mendès France,15000,471454610,musees.aurillac.fr/,44.925394,2.441947,1501402,"44.925394,2.441947",2003-02-01
Auvergne-Rhône-Alpes,Drôme,M0985,Mours-Saint-Eusèbe,musée d'art sacré,5 place Elisée Monteil,Eglise,26540,475792717,www.mourssainteusebe.fr/un-village-qui-bouge/le-musee-darts-sacres,45.07091,5.052549,2621801,"45.07091,5.052549",2003-02-01
Auvergne-Rhône-Alpes,Drôme,M0986,Romans,musée de la chaussure,Rue Bistour,Portail Roger VIVIER,26100,475055181,www.museedelachaussure.fr/,45.0431,5.055376,2628101,"45.0431,5.055376",2003-02-01
Auvergne-Rhône-Alpes,Drôme,M0989,Vassieux-en-Vercors,musée du site préhistorique,L'Hâle,,26420,475482781,www.parc-du-vercors.fr/prehistoire/home,44.865703,5.357302,2636401,"44.865703,5.357302",2003-02-01
Auvergne-Rhône-Alpes,Haute-Savoie,M1052,Annecy,musée-château,Place du château,,74000,450338730,musees.annecy.fr/,45.897263,6.124916,7401001,"45.897263,6.124916",2003-02-01
Auvergne-Rhône-Alpes,Isère,M1001,La Côte-Saint-André,musée Hector Berlioz,69 rue de La République,,38260,474202488,musees.isere.fr/musee/musee-hector-berlioz,45.393386,5.261189,3813001,"45.393386,5.261189",2003-02-01
Auvergne-Rhône-Alpes,Isère,M1004,Saint-Pierre-de-Chartreuse,musée de la Grande Chartreuse,,église Saint-Hugues,38380,476886501,www.musee-grande-chartreuse.fr/fr/,45.341728,5.814737,3844203,"45.341728,5.814737",2003-02-01
Auvergne-Rhône-Alpes,Isère,M1007,Vienne,musée du cloître Saint-André-le-Bas,place du Jeu de Paume,,38200,474851849,vienne.fr/nos-services/culture/les-musees/,45.526967,4.873538,3854401,"45.526967,4.873538",2003-02-01
Auvergne-Rhône-Alpes,Isère,M1008,Vizille,musée départemental de la Révolution française,Domaine de Vizille,Place du château,38220,476680735,musees.isere.fr/musee/domaine-de-vizille-musee-de-la-revolution-francaise,45.08753,5.773234,3856201,"45.08753,5.773234",2003-02-01
Auvergne-Rhône-Alpes,Loire,M1009,Ambierle,musée Alice Taverne,89 rue de la Grye,,42820,477656099,museealicetaverne.fr/,46.105434,3.896167,4200301,"46.105434,3.896167",2003-02-01
Auvergne-Rhône-Alpes,Loire,M1010,Charlieu,musée de la soierie,9 Boulevard Leclerc,,42190,477602884,musees-de-charlieu.webnode.fr/,46.160301,4.17052,4205202,"46.160301,4.17052",2003-02-01
Auvergne-Rhône-Alpes,Loire,M1014,Feurs,musée de Feurs,3 rue Victor de Laprade,,42110,477262448,www.feurs.org/culture/musee-d-archeologie.html,45.744191,4.219803,4209401,"45.744191,4.219803",2003-02-01
Auvergne-Rhône-Alpes,Loire,M1017,Montbrison,musée de la Diana,Rue Florimont Robertet,La Diana,42600,477960110,www.ladiana.com,45.60543,4.066822,4214702,"45.60543,4.066822",2003-02-01
Auvergne-Rhône-Alpes,Loire,M1020,Roanne,musée Joseph Déchelette,22 rue Anatole France,Hôtel Valence de la Minardière,42300,477236877,www.museederoanne.fr/musee-des-beaux-arts-et-d-archeologie-joseph-dechelette-site-officiel-2017.html,46.034953,4.069842,4218701,"46.034953,4.069842",2003-02-01
Auvergne-Rhône-Alpes,Puy-de-Dôme,M0120,Clermont-Ferrand,musée Bargoin,"45, rue Ballainvilliers",,63000,04.43.76.25.50,www.clermontmetropole.eu/bouger-se-divertir/le-dynamisme-culturel/les-musees-de-clermont-auvergne-metropole/musee-bargoin/,45.774229,3.0869,6311301,"45.774229,3.0869",2003-02-01
Auvergne-Rhône-Alpes,Puy-de-Dôme,M0124,Marsac-en-Livradois,musée des pénitents blancs,place de l'Eglise,,63940,473956008,www.vacances-livradois-forez.com/patrimoine-culturel/chapelle-musee-des-penitents-blancs-marsac-en-livradois/,45.478967,3.728534,6321101,"45.478967,3.728534",2003-02-01
Auvergne-Rhône-Alpes,Puy-de-Dôme,M7045,Menat,musée paléontologique,Place de la Mairie,Le gîte à fossiles,63560,473855462,www.menat.fr/spip.php?article29,46.103652,2.904431,6322301,"46.103652,2.904431",2003-02-01
Auvergne-Rhône-Alpes,Puy-de-Dôme,M0126,Murol,musée municipal,Château de Murol,,63790,473886710,murolchateau.com/,45.590429,2.921508,6324701,"45.590429,2.921508",2003-02-01
Auvergne-Rhône-Alpes,Rhône,M1034,Lyon,centre d'histoire de la résistance,14 avenue Berthelot,,69007,478722311,www.chrd.lyon.fr/,45.747037,4.835797,6938701,"45.747037,4.835797",2003-02-01
Auvergne-Rhône-Alpes,Rhône,M1127,Lyon,musée de l'imprimerie et de la communication graphique,13 rue de la Poulaillerie,,69002,478376598,www.imprimerie.lyon.fr/fr,45.764219,4.834752,6912304,"45.764219,4.834752",2005-07-19
Auvergne-Rhône-Alpes,Rhône,M1031,Lyon,musée des beaux-arts,20 place des Terreaux,,69001,472101740,www.mba-lyon.fr/fr,45.767177,4.833576,6938102,"45.767177,4.833576",2002-01-06
Auvergne-Rhône-Alpes,Rhône,M7042,Lyon,muséum d'histoire naturelle,86 quai Perrache,,69002,428381190,www.museedesconfluences.fr/,45.73319,4.818042,6938603,"45.73319,4.818042",2011-03-21
Auvergne-Rhône-Alpes,Rhône,M1185,Marnand,écomusée du Haut Beaujolais,570 chemin des pierres plantées,La Manufacture,69240,474640648,musees.ouestrhodanien.fr/ecomusee-du-haut-beaujolais.html,46.037849,4.315548,6924801,"46.037849,4.315548",2005-07-19
Auvergne-Rhône-Alpes,Rhône,M1040,Rochetaille-sur-Saône,musée Henri Malartre,645 rue du Musée 69270 Rochetaillée sur Saône,Château,69270,478221880,www.musee-malartre.com,45.84492,4.837207,6916801,"45.84492,4.837207",2003-02-01
Auvergne-Rhône-Alpes,Savoie,M1043,Aime-en-Tarentaise,musée archéologique et minéralogique Pierre Borrione,Montée de Saint Sigismond - Aime,Chapelle Saint Sigismond,73210,479556700,www.la-plagne.com/decouvrir-la-plagne/le-patrimoine/histoire-locale/savoir-faire-histoire-locale/des-pierres-et-des-hommes-espace-archeologique-pierre-borrione,45.559416,6.651415,7300601,"45.559416,6.651415",2003-02-01
Auvergne-Rhône-Alpes,Savoie,M1050,Chambéry,musée Savoisien,Square de Lannoy de Bissy,Ancien Couvent des Franciscains,73000,479334448,www.savoie.fr/web/sw_64583/le-musee-savoisien-poursuit-sa-renovation,45.571174,5.875158,7306502,"45.571174,5.875158",2002-01-06
Bourgogne-Franche-Comté,Côte-d'Or,M0132,Auxonne,musée Bonaparte,Rue du Château,Château Louis XI,21130,380373446,www.auxonne.fr/musee-bonaparte,47.190963,5.383768,2103801,"47.190963,5.383768",2003-02-01
Bourgogne-Franche-Comté,Côte-d'Or,M0138,Dijon,musée archéologique,"5, rue Docteur Maret",Ancienne abbaye Saint-Bénigne,21000,380488370,archeologie.dijon.fr/,47.321873,5.034107,2123102,"47.321873,5.034107",2003-02-01
Bourgogne-Franche-Comté,Doubs,M0332,Besançon,musée des beaux-arts et d'archéologie,1 place de la Révolution - Place du marché,Ancienne halle aux grains,25000,381878067,www.mbaa.besancon.fr/,47.240055,6.022938,2505601,"47.240055,6.022938",2002-01-06
Bourgogne-Franche-Comté,Doubs,M0333,Besançon,musée du temps,96 Grande rue,Palais Granvelle,25000,381878161,www.mdt.besancon.fr/,47.235978,6.0268,2505602,"47.235978,6.0268",2003-02-01
Bourgogne-Franche-Comté,Doubs,M0336,Montbéliard,musée Beurnier-Rossel,8 place Saint-Martin,Hôtel Beurnier-Rossel,25200,381992390,www.montbeliard.fr/mes-sorties-mes-activites/musees-de-montbeliard.html,47.509957,6.797684,2538801,"47.509957,6.797684",2003-02-01
Bourgogne-Franche-Comté,Doubs,M0340,Pontarlier,musée municipal,2 place d'Arçon,Maison Labrut,25300,381388216,www.ville-pontarlier.fr/page/activites-et-loisirs/activites-culture/musee-municipal/infos-pratique-2,46.904221,6.354581,2546201,"46.904221,6.354581",2003-02-01
Bourgogne-Franche-Comté,Jura,M1169,Saint-Claude,musée de beaux-arts,3 place de l'abbaye,,39200,384381260,museedelabbaye.fr/home/anim.php,46.386209,5.865239,3947801,"46.386209,5.865239",2003-02-01
Bourgogne-Franche-Comté,Nièvre,M0155,Nevers,musée de la faïence Frédéric Blandin,"16, rue St-Genest",,58000,386684460,culture.nevers.fr/musee/,46.98629,3.155037,5819402,"46.98629,3.155037",2003-02-01
Bourgogne-Franche-Comté,Saône-et-Loire,M0162,Autun,musée Verger-Tarin,"7, rue des Sous-Chambres",,71400,385520484,,46.949043,4.302971,7101401,"46.949043,4.302971",2003-02-01
Bourgogne-Franche-Comté,Saône-et-Loire,M7019,Autun,muséum d'histoire naturelle,"12-14, rue Saint-Antoine",,71400,385520915,www.autun.com/sortir-a-autun/les-lieux-de-loisirs/le-museum-dhistoire-naturelle,46.947996,4.301812,7101404,"46.947996,4.301812",2002-01-06
Bourgogne-Franche-Comté,Saône-et-Loire,M0182,Tournus,musée bourguignon Perrin de Puycousin,"Hôtel-Dieu - musée Greuze, 21, rue de l'Hôpital",La maison du Trésorier,71700,385512968,,46.562137,4.910839,7154302,"46.562137,4.910839",2003-02-01
Bourgogne-Franche-Comté,Yonne,M0184,Auxerre,musée d'art et d'histoire Saint-Germain,"2 bis, place Saint-Germain",Abbaye Saint-Germain,89000,386180550,www.auxerre.fr/Attractive/Les-grands-equipements/Les-equipements-culturels/Musees,47.800283,3.571975,8902402,"47.800283,3.571975",2003-02-01
Bourgogne-Franche-Comté,Yonne,M0186,Avallon,musée de l'Avallonnais Jean Després,5 rue du Collège,Ancien collège,89200,386340319,ville-avallon.fr/musee-de-lavallonnais-jean-despres/,47.486968,3.906795,8902501,"47.486968,3.906795",2003-02-01
Bourgogne-Franche-Comté,Yonne,M0188,Saint-Sauveur-en-Puisaye,musée Colette,,Château de Saint-Sauveur-en-Puisaye,89520,386456195,www.musee-colette.com/index.php,47.618015,3.197026,8936801,"47.618015,3.197026",2003-02-01
Bourgogne-Franche-Comté,Yonne,M0193,Villiers-Saint-Benoît,musée d'art et d'histoire de Puisaye,Rue Paul-Huillard,,89130,"03 86 45 73 05, 09 64 44 32 62",mahvillierssaintbeno.wixsite.com/musee?utm_source=OT_Puisaye_Forterre&utm_medium=OT_Puisaye_Forterre&utm_campaign=OT_Puisaye_Forterre,47.780142,3.20739,8947201,"47.780142,3.20739",2003-02-01
Pays-de-la-Loire,Maine-et-Loire,M0748,Angers,musée des beaux-arts et galerie David-d'Angers,"14 rue du musée, 33 bis rue Toussaint",Logis Barrault,49100,02 41 05 38 94 ; 02 41 05 38 90,musees.angers.fr/accueil/index.html,47.469659,-0.555485,4900701,"47.469659,-0.555485",2002-01-06
Pays-de-la-Loire,Maine-et-Loire,M0749,Angers,musée Pincé,32 bis rue Lenepveu,,49100,241053800,musees.angers.fr/les-lieux/musee-pince/index.html,47.471767,-0.551841,4900702,"47.471767,-0.551841",2003-02-01
Pays-de-la-Loire,Maine-et-Loire,M7017,Angers,muséum des sciences naturelles,43 rue Jules Guitton,,49100,241054850,www.angers.fr/vivre-a-angers/culture/culture-scientifique/museum-des-sciences-naturelles/le-museum-des-sciences-naturelles/index.html,47.473467,-0.546399,4900708,"47.473467,-0.546399",2003-02-01
Pays-de-la-Loire,Maine-et-Loire,M1211,Fontevraud,musée d'art moderne de Fontevraud - collection Martine et Léon Cligman,,Abbaye Royale de Fontevraud,49590,,www.fontevraud.fr/musee-dart-moderne/decouvrir/,47.18198,0.05295,,"47.18198,0.05295",2019-08-20
Pays-de-la-Loire,Maine-et-Loire,M0760,Trélazé,musée de l'ardoise,32 chemin de La Maraîchère,,49800,241690471,www.lemuseedelardoise.fr,47.450792,-0.491518,4935301,"47.450792,-0.491518",2003-02-01
Pays-de-la-Loire,Mayenne,M0761,Ambrières-les-Vallées,musée des tisserands mayennais,place Billard-de-Vaux,,53300,243049619,www.ambriereslesvallees.mairie53.fr/musee-des-tisserands,48.402909,-0.630644,5300301,"48.402909,-0.630644",2003-02-01
Pays-de-la-Loire,Mayenne,M0762,Château-Gontier,musée d'art et d'archéologie,rue Jean Bourré,BP 402,53204,243704274,patrimoine.chateaugontier.fr/,47.82914894790312,-0.7039436064897823,5306201,"47.82914894790312,-0.7039436064897823",2003-02-01
Pays-de-la-Loire,Sarthe,M0771,Le Mans,musée de la reine Bérengère,9-13 rue de la Reine Bérengère,,72000,243473880,www.lemans.fr/dynamique/des-idees-de-visite/les-musees/le-musee-de-la-reine-berengere/,48.008953,0.1977,7218102,"48.008953,0.1977",2002-01-06
Pays-de-la-Loire,Sarthe,M1192,Le Mans,musée vert Véron-de-Forbonnais,204 avenue Jean Jaurès,,72100,243473994,www.lemans.fr/dynamique/des-idees-de-visite/les-musees/le-musee-vert/,47.986868,0.208417,7218199,"47.986868,0.208417",2003-02-01
Pays-de-la-Loire,Vendée,M0772,Faymoreau-les-Mines,centre minier,La cour,,85240,251004848,www.centreminier-vendee.fr/,46.55525,-0.630566,8508701,"46.55525,-0.630566",2003-02-01
Pays-de-la-Loire,Vendée,M0773,Fontenay-le-Comte,musée de Fontenay-le-Comte,Place du 137e Régiment d'Infanterie,,85200,251534004,www.fontenay-le-comte.fr/musee-fontenay,46.46746223448963,-0.806809739064941,8509201,"46.46746223448963,-0.806809739064941",2002-12-14
Pays-de-la-Loire,Vendée,M0776,La Roche-sur-Yon,musée municipal,10 rue Salvador Allende,Service musée et Patrimoine - Salle d'exposition du Cyel,85000,251474835,www.larochesuryon.fr/musee/,46.669265,-1.428828,8519101,"46.669265,-1.428828",2003-02-01
Pays-de-la-Loire,Vendée,M5049,Mouilleron-en-Pareds,musée Clémenceau et de Lattre de Tassigny,18 rue du Temple (Maison natale de Clemenceau),1 rue Plante-Choux (maison natale du maréchal de Lattre de Tassigny),85390,251003149,musee-clemenceau-delattre.fr/,46.675283,-0.849535,8515401,"46.675283,-0.849535",2002-01-06
Provence-Alpes-Côte-d'Azur,Alpes-de-Haute-Provence,M0859,Mane,musée de Salagon,Route nationale,Prieuré de Salagon,4300,492757050,www.musee-de-salagon.com/accueil.html,43.93798,5.76727,411101,"43.93798,5.76727",2003-02-01
Provence-Alpes-Côte-d'Azur,Alpes-de-Haute-Provence,M0861,Quinson,musée départemental de préhistoire,Route de Montmeyan,,4500,492740959,www.museeprehistoire.com/accueil.html,43.709854,6.040734,415801,"43.709854,6.040734",2003-02-01
Provence-Alpes-Côte-d'Azur,Alpes-de-Haute-Provence,M0864,Reillanne (Vachères),musée archéologique,Ecole publique,,4110,04 92 75 61 16 ( mairie),www.mairie-vacheres.fr/fr/musee,43.93598226424194,5.654370035822609,422701,"43.93598226424194,5.654370035822609",2003-02-01
Provence-Alpes-Côte-d'Azur,Alpes-de-Haute-Provence,M0863,Sisteron,musée gallo-romain Sisteron,8 rue saunerie,,4200,492615840,www.sisteron.com/mes-loisirs/culture-patrimoine/equipements-culturels/musees-expositions,44.197595,5.944839,420901,"44.197595,5.944839",2003-02-01
Provence-Alpes-Côte-d'Azur,Alpes-Maritimes,M5028,Biot,musée national Fernand Léger,Chemin du Val-de-Pome,,6410,492915030,musees-nationaux-alpesmaritimes.fr/fleger/,43.620705,7.112317,601801,"43.620705,7.112317",2002-01-06
Provence-Alpes-Côte-d'Azur,Alpes-Maritimes,M0870,Cagnes-sur-Mer,musée-château,"Place Grimaldi, Haut-de-Cagnes",Château,6800,492024730,www.cagnes-sur-mer.fr/culture/chateau-musee-grimaldi/,43.666892,7.145213,602701,"43.666892,7.145213",2003-02-01
Provence-Alpes-Côte-d'Azur,Alpes-Maritimes,M0876,Grasse,musée Fragonard,23 boulevard Fragonard,,6130,497055800,www.museesdegrasse.com/vmjhf/presentation,43.656739,6.921091,606901,"43.656739,6.921091",2003-02-01
Provence-Alpes-Côte-d'Azur,Alpes-Maritimes,M0877,Grasse,musée international de la parfumerie,2 boulevard du Jeu de Ballon,,6130,497055800,www.museesdegrasse.com/presentation-du-musee-0,43.658385,6.922,606903,"43.658385,6.922",2003-02-01
Provence-Alpes-Côte-d'Azur,Alpes-Maritimes,M1135,Le Cannet,musée Bonnard,16 boulevard Sadi Carnot,,6110,04 93 94 06 06 - 04 92 18 24 42 - 04 92 18 24 43,www.museebonnard.fr/,43.576273,7.019853,603001,"43.576273,7.019853",2006-12-13
Provence-Alpes-Côte-d'Azur,Alpes-Maritimes,M0889,Nice,musée départemental des arts asiatiques,405 promenade des Anglais,,6200,492293700,maa.departement06.fr/musee-des-arts-asiatiques-13422.html,43.678077,7.215461,608816,"43.678077,7.215461",2003-02-01
Provence-Alpes-Côte-d'Azur,Alpes-Maritimes,M5027,Nice,musée national du sport,Boulevard des jardiniers - Stade Allianz Riviera,,6200,489224400,www.museedusport.fr/,43.703829,7.191059,608817,"43.703829,7.191059",2004-04-19
Provence-Alpes-Côte-d'Azur,Alpes-Maritimes,M0891,Tende,musée des merveilles,Avenue du 16 septembre 1947,,6430,493043250,museedesmerveilles.departement06.fr/musee-des-merveilles-13336.html,44.088854,7.593216,616301,"44.088854,7.593216",2003-02-01
Provence-Alpes-Côte-d'Azur,Alpes-Maritimes,M5047,Vallauris,musée national de Vallauris (la Guerre et la Paix de Picasso),Place de la Libération,Château-Musée de Vallauris,6220,493647183,musees-nationaux-alpesmaritimes.fr/picasso/,43.579971,7.052887,615502,"43.579971,7.052887",2002-01-06
Provence-Alpes-Côte-d'Azur,Alpes-Maritimes,M0893,Villefranche-sur-Mer,musée d'art et d'histoire,La Citadelle,La Citadelle,6230,493763327,villefranche-sur-mer.fr/musees/,43.701093,7.311425,615901,"43.701093,7.311425",2003-02-01
Provence-Alpes-Côte-d'Azur,Bouches-du-Rhône,M7064,Aix-en-Provence,muséum d'histoire naturelle,7 allée des robiniers,Parc Saint Mitre,13090,488718181,www.aixenprovence.fr/Museum-d-histoire-naturelle-1039,43.533792,5.423327,1300107,"43.533792,5.423327",2002-01-06
Provence-Alpes-Côte-d'Azur,Bouches-du-Rhône,M0904,Cassis,musée municipal d'arts et traditions populaires,rue Xavier d'Authier,ancien presbytère,13260,442183678,www.cassis.fr/culture-festivites/le-musee/,43.214464,5.540037,1302201,"43.214464,5.540037",2003-02-01
Provence-Alpes-Côte-d'Azur,Bouches-du-Rhône,M0908,Lambesc,musée folklorique du vieux Lambesc,2 rue du Jas,,13410,442570301,www.lambesc.fr/mes-sorties/loisirs-et-culture/musee-du-vieux-lambesc/,43.651927,5.261964,1305001,"43.651927,5.261964",2003-02-01
Provence-Alpes-Côte-d'Azur,Bouches-du-Rhône,M0919,Marseille,musée d'archéologie méditerranéenne,2 rue de La Charité,Centre de la Vieille Charité,13002,491145880,musees.marseille.fr/musee-darcheologie-mediterraneenne-mam,43.300172,5.367602,1305507,"43.300172,5.367602",2003-02-01
Provence-Alpes-Côte-d'Azur,Bouches-du-Rhône,M1094,Marseille,musée d'art contemporain - galeries contemporaines,69 avenue d'Haïfa,,13008,491250107,musees.marseille.fr/musee-dart-contemporain-mac,43.250815,5.389874,1320691,"43.250815,5.389874",2003-02-01
Provence-Alpes-Côte-d'Azur,Bouches-du-Rhône,M0913,Marseille,musée des beaux-arts,Musée des Beaux-Arts,Palais Longchamp,13233,491145930,musees.marseille.fr/musee-des-beaux-arts-mba,43.30471863787663,5.394041457684137,1320401,"43.30471863787663,5.394041457684137",2002-01-06
Provence-Alpes-Côte-d'Azur,Bouches-du-Rhône,M5002,Marseille,musée des civilisations de l'Europe et de la méditerranée,Esplanade J4 - 7 promenade Robert Laffont,,13213,484351300,www.mucem.org/,43.29690491040561,5.361071769324869,1320201,"43.29690491040561,5.361071769324869",2013-02-21
Provence-Alpes-Côte-d'Azur,Bouches-du-Rhône,M0918,Marseille,musée d'histoire de Marseille,"2, rue Henri Barbusse",,13001,491553600,musees.marseille.fr/musee-dhistoire-de-marseille-mhm,43.298168,5.374162,1305505,"43.298168,5.374162",2003-02-01
Provence-Alpes-Côte-d'Azur,Bouches-du-Rhône,M0917,Marseille,musée Grobet-Labadié,140 boulevard Lonchamp,,13001,491622182,musees.marseille.fr/musee-grobet-labadie-mgl-0,43.303412,5.392866,1320101,"43.303412,5.392866",2003-02-01
Provence-Alpes-Côte-d'Azur,Bouches-du-Rhône,M0924,Saint-Cannat,musée Suffren et du vieux Saint-Cannat,3 Avenue Pasteur,Espace Suffren,13760,442573603,www.saint-cannat.fr/tourisme-loisirs/culture/musee-suffren.html,43.621602,5.295178,1309101,"43.621602,5.295178",2003-02-01
Provence-Alpes-Côte-d'Azur,Bouches-du-Rhône,M0925,Saint-Chamas,musée du vieux Saint-Chamas,Saint-Chamas,Montée des Pénitents,13250,490508561,musee.paullafran.free.fr/,43.554245,5.072251,1309201,"43.554245,5.072251",2003-02-01
Provence-Alpes-Côte-d'Azur,Var,M0931,Bormes-les-Mimosas,"MHAB, musée d’histoire et d’art de Bormes",103 rue Carnot,,83230,494715660,www.bormeslesmimosas.com/sites/default/files/upload/Quoi Faire/Visites et Patrimoine/Arts et histoire/musee-arts-et-histoire.jpg,43.150793,6.340584,8301901,"43.150793,6.340584",2003-02-01
Provence-Alpes-Côte-d'Azur,Var,M9008,Fréjus,musée des troupes de marine,Avenue des Troupes de Marine,Quartier Colonel Le Coq,83608,494178688,www.defense.gouv.fr/terre/histoire-et-patrimoine/patrimoine/musees/musee-des-troupes-de-marine,43.47210158572287,6.721402172498896,8306102,"43.47210158572287,6.721402172498896",2006-08-29
Provence-Alpes-Côte-d'Azur,Var,M0937,Hyères,musée municipal,14 avenue Joseph Clotis,,83400,494007880,www.hyeres.fr/musee-des-cultures-et-du-paysage,43.119997,6.130519,8306901,"43.119997,6.130519",2003-02-01
Provence-Alpes-Côte-d'Azur,Var,M0938,La Garde,musée Jean Aicard,Avenue du 11 mai 1945,Villa «Les lauriers roses»,83000,494143378,toulon.fr/envie-bouger/article/musee-jean-aicard-paulin-bertrand,43.131242,5.931994,8306201,"43.131242,5.931994",2003-02-01
Provence-Alpes-Côte-d'Azur,Var,M7061,Toulon,muséum d'histoire naturelle,"737, chemin du Jonquet",Jardin du Las,83200,483954420,museum.var.fr/ws/home/app/collection/expo,43.143305,5.910861,8313701,"43.143305,5.910861",2003-02-01
Provence-Alpes-Côte-d'Azur,Vaucluse,M0946,Avignon,musée Calvet (et musée lapidaire),65 rue Joseph Vernet,,84000,490863384,www.musee-calvet.org/,43.946985,4.803388,8400704,"43.946985,4.803388",2002-01-06
Provence-Alpes-Côte-d'Azur,Vaucluse,M0951,Carpentras,musée Sobirats,112 rue du Collège,Hôtel,84200,490630492,inguimbertine.carpentras.fr/,44.054477,5.046269,8403105,"44.054477,5.046269",2003-02-01
Provence-Alpes-Côte-d'Azur,Vaucluse,M0954,Cavaillon,synagogue musée juif comtadin,Rue Hébraïque,Synagogue,84300,490712106,www.cavaillon.fr/le-musee-juif-contadin.html,43.836842,5.038553,8403501,"43.836842,5.038553",2003-02-01
Provence-Alpes-Côte-d'Azur,Vaucluse,M0957,Lourmarin,musée Philippe de Girard,S'adresser à la mairie,,84160,,,43.76316809302446,5.3636267092803775,8406801,"43.76316809302446,5.3636267092803775",2003-02-01
Territoires et départements d'outre-mer,Guadeloupe,M1061,Pointe-à-Pitre,musée Schoelcher,24 rue Peynier,,97110,590820804,,16.237697,-61.537737,9712002,"16.237697,-61.537737",2003-02-01
Territoires et départements d'outre-mer,Guyane,M1064,Cayenne,musée des arts et traditions populaires de la Guyane,78 rue Madame Payé,,97300,594314172,amazonian-museum-network.org/fr/les-musees-d-amazonie/musee-des-cultures-guyanaises,4.94156,-52.32837,9730901,"4.94156,-52.32837",2003-02-01
Territoires et départements d'outre-mer,La Réunion,M7014,Saint-Denis-de-la-Réunion,muséum d'histoire naturelle,1 rue Poivre,,97400,262200219,www.departement974.fr/museum,-20.887712,55.451452,9741102,"-20.887712,55.451452",2002-01-06
Territoires et départements d'outre-mer,La Réunion,M1070,Saint-Gilles-les-Hauts,musée de Villèle,Domaine de Panon-Desbassayns,,97435,262556410,www.musee-villele.re/fr/,-21.055917761556145,55.264409385729984,9743501,"-21.055917761556145,55.264409385729984",2003-02-01
Territoires et départements d'outre-mer,Martinique,M1081,Rivière-Pilote,écomusée de la Martinique,quai Anse-du-figuier,,97211,596627914,www.martinique.org/node/24376/PCUMAR972V5000OU/detail/riviere-pilote/ecomusee,14.463029,-60.909569,9722001,"14.463029,-60.909569",2003-02-01
Territoires et départements d'outre-mer,Mayotte,M1209,Mayotte,MuMa - musée de Mayotte,,,97615,,www.cg976.fr/actualite/355/le-musee-de-mayotte-muma-premier-musee-de-france-a-mayotte,-12.774184,45.282721,9760801,"-12.774184,45.282721",2018-12-20
Auvergne-Rhône-Alpes,Ain,M0964,Bourg-en-Bresse,musées des pays de l'Ain,"34, rue Général Delestraint",,1000,474321060,www.ain.fr/solutions-services-infos-pratiques/culture-patrimoine/visiter-musees/,46.196543,5.219217,105302,"46.196543,5.219217",2003-02-01
Auvergne-Rhône-Alpes,Ain,M0967,Lochieu,musée du Bugey-Valromey,3 rue Centrale,,1260,479875223,patrimoines.ain.fr/n/musee-du-bugey-valromey/n:970,45.930633,5.727664,121801,"45.930633,5.727664",2003-02-01
Auvergne-Rhône-Alpes,Ain,M0968,Nantua,musée de la résistance et de la déportation de l'Ain,3 montée de l'abbaye,,1130,474750750,patrimoines.ain.fr/n/musee-de-la-resistance-et-de-la-deportation/n:809,46.152378,5.608744,126901,"46.152378,5.608744",2003-02-01
Auvergne-Rhône-Alpes,Ardèche,M0977,Les Vans,musée régional,,,7140,475372448,www.les-vans.fr/vivre-ici/structures-culturelles/musee/,44.404332,4.131418,733401,"44.404332,4.131418",2003-02-01
Auvergne-Rhône-Alpes,Ardèche,M0979,Serrières,musée de la batellerie du Rhône,154 rue Auguste Vincent,Ancienne église Saint-Sornin,7340,475340046,www.serrieres.fr/Musee-des-Mariniers-et-de-la,45.317802,4.763253,731301,"45.317802,4.763253",2003-02-01
Auvergne-Rhône-Alpes,Drôme,M0983,Grignan,musée départemental du château,Le village,,26230,475918350,www.chateaux-ladrome.fr/fr/,44.439013,4.873189,2614601,"44.439013,4.873189",2003-02-01
Auvergne-Rhône-Alpes,Drôme,M0988,Valence,musée des beaux-arts,4 place des Ormeaux,Ancien palais épiscopal,26000,475792080,www.museedevalence.fr/,44.931125,4.889563,2636201,"44.931125,4.889563",2003-02-01
Auvergne-Rhône-Alpes,Haute-Loire,M7031,Chilhac,musée de paléontologie,Place de l'Eglise,,43380,471774726,www.museechilhac.com,45.148133,3.402324,4307001,"45.148133,3.402324",2003-02-01
Auvergne-Rhône-Alpes,Haute-Savoie,M1053,Chamonix,musée alpin,89 avenue Michel Croz,La Résidence,74400,450552946,musee-alpin-chamonix.fr/fr/infos-pratiques,45.923429,6.871049,7405601,"45.923429,6.871049",2003-02-01
Auvergne-Rhône-Alpes,Haute-Savoie,M1057,Thonon-les-Bains,musée de Thonon-les-Bains,Square Eberbach,Château de Sonnaz,74200,450706949,www.thononlesbains.com/patrimoine-culturel/musee-du-chablais-thonon-les-bains/,46.37487,6.48177,7428102,"46.37487,6.48177",2003-02-01
Auvergne-Rhône-Alpes,Isère,M0990,Aoste,musée des antiquités gallo-romaines,43 place du musée,,38490,476325827,www.mairie-aoste.org/newpage1,45.587605,5.60661,3801201,"45.587605,5.60661",2003-02-01
Auvergne-Rhône-Alpes,Isère,M0992,Echirolles,musée Géo-Charles,1 rue Géo-Charles,,38130,476225863,www.echirolles.fr/culture-sports-loisirs/expos-et-musees/musee-geo-charles,45.14935,5.699614,3815101,"45.14935,5.699614",2003-02-01
Auvergne-Rhône-Alpes,Isère,M0998,Grenoble,musée de la résistance et de la déportation,14 rue Hébert,,38000,476423853,musees.isere.fr/musee/musee-de-la-resistance-et-de-la-deportation-de-lisere,45.190041,5.735245,3818508,"45.190041,5.735245",2003-02-01
Auvergne-Rhône-Alpes,Isère,M0995,Grenoble,musée Stendhal,20 Grande Rue,,38000,476865208,www.bm-grenoble.fr/1083-musee-stendhal.htm,45.191481,5.728083,3818507,"45.191481,5.728083",2003-02-01
Auvergne-Rhône-Alpes,Isère,M1003,La Tronche,musée Hébert - d'Uckermann,Chemin Hébert,,38700,476424612,musees.isere.fr/musee/musee-hebert,45.205613,5.751334,3851601,"45.205613,5.751334",2003-02-01
Auvergne-Rhône-Alpes,Loire,M1025,Saint-Etienne,musée de la mine,3 Boulevard Franchet d'Esperey,Puits Couriot / Parc-Musée de la Mine ; Parc Joseph Sanguedolce,42000,477438323,www.musee-mine.saint-etienne.fr/,45.438944,4.376487,4221804,"45.438944,4.376487",2003-02-01
Auvergne-Rhône-Alpes,Loire,M1028,Saint-Just-Saint-Rambert,musée des civilisations : Daniel Pouget,Place Madeleine Rousseau,,42170,477520311,www.stjust-strambert.fr/sorties-et-loisirs/culture-et-evenements/musee-des-civilisations-daniel-pouget/,45.500657,4.242057,4227901,"45.500657,4.242057",2003-02-01
Auvergne-Rhône-Alpes,Loire,M1029,Usson-en-Forez,musée rural,Quartier Saint-Joseph Place Alex Folléas,,42550,477506797,www.ecomusee-usson-en-forez.fr/,45.392445,3.943885,4231801,"45.392445,3.943885",2003-02-01
Auvergne-Rhône-Alpes,Puy-de-Dôme,M0119,Arlanc,musée de la dentelle,53 route nationale,Hôtel de ville,63220,473950003,arlanc.fr/accueil/20-le-musee-de-la-dentelle.html,45.414373,3.724421,6301001,"45.414373,3.724421",2003-02-01
Auvergne-Rhône-Alpes,Puy-de-Dôme,M7032,Clermont-Ferrand,muséum d'histoire naturelle Lecoq,"15, rue Bardoux",Hôtel particulier Henri Lecoq,63000,443762560,www.clermontmetropole.eu/bouger-se-divertir/le-dynamisme-culturel/les-musees-de-clermont-auvergne-metropole/museum-henri-lecoq/,45.774138,3.088299,6311303,"45.774138,3.088299",2002-01-06
Auvergne-Rhône-Alpes,Puy-de-Dôme,M0125,Mozac,musée lapidaire,place de l'Abbaye,Abbaye,63200,473381853,www.ville-mozac.com/La-crypte-et-le-musee-lapidaire.html,45.892133,3.094609,6324501,"45.892133,3.094609",2003-02-01
Auvergne-Rhône-Alpes,Rhône,M1128,Lyon,musée des sapeurs-pompiers de Lyon,358 avenue de Champagne,Centre de secours principal,69009,472175454,museepompiers.com/,45.790491,4.797411,6938901,"45.790491,4.797411",2005-07-19
Auvergne-Rhône-Alpes,Rhône,M1032,Lyon,musée Gadagne,1 place du Petit Collège,Hôtel de Gadagne,69005,478420361,www.gadagne-lyon.fr/,45.763856,4.827749,6938501,"45.763856,4.827749",2003-02-01
Auvergne-Rhône-Alpes,Savoie,M7029,Chambéry,muséum d'histoire naturelle,208 avenue de Lyon,,73000,479333944,,45.563911,5.916266,7306504,"45.563911,5.916266",2003-02-01
Bourgogne-Franche-Comté,Côte-d'Or,M0135,Buffon,musée de la sidérurgie en Bourgogne du Nord,La Grande Forge,,21500,380921035,www.grandeforgedebuffon.fr/,47.649485,4.260891,2111401,"47.649485,4.260891",2003-02-01
Bourgogne-Franche-Comté,Côte-d'Or,M0141,Fixin,musée Noisot,Parc Noisot,Parc Noisot,21220,380524552,www.mairiedefixin.fr/musee-noisot,47.245363,4.962515,2126501,"47.245363,4.962515",2003-02-01
Bourgogne-Franche-Comté,Côte-d'Or,M0144,Nuits-Saint-Georges,musée municipal,"12, rue Camille Rodier",Ancienne Maison de Vins,21700,380620137,www.ot-nuits-st-georges.fr/accueil/,47.138661,4.950405,2146401,"47.138661,4.950405",2003-02-01
Bourgogne-Franche-Comté,Côte-d'Or,M0145,Reulle-Vergy,musée des arts et traditions des Hautes-Côtes,Place de la Fontaine,,21220,03 80 61 42 93/40 95,,47.187026,4.895293,2125401,"47.187026,4.895293",2003-02-01
Bourgogne-Franche-Comté,Haute-Saône,M0354,Champlitte,musée départemental Albert Demard,Château de Champlitte,,70600,384957600,musees.haute-saone.fr/,47.617066,5.517093,7012201,"47.617066,5.517093",2003-02-01
Bourgogne-Franche-Comté,Haute-Saône,M0355,Château-Lambert,musée départemental de la montagne Albert Demard,3 place du 19 mars 1962,Château-Lambert,70440,384204309,musees.haute-saone.fr/chateau-lambert/,47.836247,6.734944,7013901,"47.836247,6.734944",2003-02-01
Bourgogne-Franche-Comté,Haute-Saône,M0358,Luxeuil-les-Bains,musée de la Tour des échevins,"36, rue Victor-Genoux",Tour des Echevins,70300,384400007,www.ville-luxeuil-les-bains.fr/musees.htm,47.816821,6.380482,7031101,"47.816821,6.380482",2003-02-01
Bourgogne-Franche-Comté,Jura,M0343,Baume-les-Messieurs,musée de l'artisanat jurassien,22 Rue de l'Abbaye,,39210,384873591,,46.70795,5.648585,3904101,"46.70795,5.648585",2003-02-01
Bourgogne-Franche-Comté,Saône-et-Loire,M0160,Autun,musée lapidaire Saint-Nicolas,"10, rue Saint-Nicolas",,71400,385542160,www.museerolin.fr/node/132,46.955328,4.300179,7101403,"46.955328,4.300179",2003-02-01
Bourgogne-Franche-Comté,Saône-et-Loire,M0165,Chalon-sur-Saône,musée Vivant Denon,Place de l'Hôtel de Ville,,71100,03 85 94 74 41/48 29 52,www.museedenon.com/,46.78105,4.853082,7107601,"46.78105,4.853082",2003-02-01
Bourgogne-Franche-Comté,Saône-et-Loire,M0167,Charolles,musée René Davoine,"32, rue René Davoine",,71120,385242474,www.ville-charolles.fr/musee-du-prieure-jean-laronze,46.431434,4.273059,7110601,"46.431434,4.273059",2003-02-01
Bourgogne-Franche-Comté,Saône-et-Loire,M0174,Marcigny,musée de la tour du moulin,Rue de la Tour du Moulin,,71110,385253705,www.marcigny.fr/musee-de-la-tour-du-moulin,46.274562,4.044451,7127501,"46.274562,4.044451",2003-02-01
Bourgogne-Franche-Comté,Saône-et-Loire,M0177,Pierre-de-Bresse,écomusée de la Bresse bourguignonne,BP 12,Château départemental,71270,385762716,www.ecomusee-bresse71.fr/,46.88298,5.261603,7135101,"46.88298,5.261603",2003-02-01
Bourgogne-Franche-Comté,Saône-et-Loire,M0183,Verdun-sur-le-Doubs,maison du blé et du pain,rue du Pont,,71350,385915709,www.ecomusee-bresse71.fr/,46.897337,5.024918,7156601,"46.897337,5.024918",2003-02-01
Bourgogne-Franche-Comté,Territoire-de-Belfort,M0362,Etueffont,forge-musée,2 rue de Lamadeleine,,90170,384546041,www.etueffont.fr/decouvrir/patrimoine-historique.htm,47.722575,6.920842,9004101,"47.722575,6.920842",2003-02-01
Bretagne,Côtes-d'Armor,M0195,Lamballe,musée Mathurin Meheut,Place de Martray,,22404,296311999,www.musee-meheut.fr/fr/,48.46953167624482,-2.515800988211214,2209301,"48.46953167624482,-2.515800988211214",2002-05-02
Bretagne,Finistère,M0205,Pont-Aven,musée,PLACE JULIA,,29930,298061443,www.museepontaven.fr/fr/,47.855497,-3.747155,2921701,"47.855497,-3.747155",2003-02-01
Centre-Val de Loire,Cher,M0232,Bourges,musée des meilleurs ouvriers de France,Hôtel de Ville - place Etienne Dolet,Ancien Archevêché,18000,248578245,www.bourges.fr/site/musee-meilleurs-ouvriers-france,47.081774,2.398494,1803306,"47.081774,2.398494",2003-02-01
Centre-Val de Loire,Indre-et-Loire,M0253,Amboise,musée Hôtel Morin,,mairie,37400,247234723,www.ville-amboise.fr/97/musee-hotel-morin.htm,47.410737,0.981446,3700301,"47.410737,0.981446",2003-02-01
Centre-Val de Loire,Indre-et-Loire,M7062,Tours,muséum d'histoire naturelle,"3, rue du Président-Merville",,37000,247216608,www.museum.tours.fr/,47.394637,0.68388,3726101,"47.394637,0.68388",2003-02-01
Centre-Val de Loire,Indre-et-Loire,M0269,Yzeures-sur-Creuse,musée de Minerve,place du Musée,,37290,247945501,,46.785983,0.869839,3728201,"46.785983,0.869839",2003-02-01
Centre-Val de Loire,Loiret,M0279,Beaugency,musée Daniel Vannier,"2, place Dunois",Château Dunois,45190,238445523,www.beaugency.fr/decouvrir-beaugency/la-ville-2/au-fil-des-monuments/le-chateau/,47.777611,1.633585,4502801,"47.777611,1.633585",2003-02-01
Centre-Val de Loire,Loiret,M1218,Malesherbes,"atelier-musée de l'imprimerie, Le Malesherbois",70 avenue du Général Patton,Le Malesherbois,45330,238332267,http://a-mi.fr/,48.299076917985694,2.3864524975252785,,"48.299076917985694,2.3864524975252785",2022-12-26
Centre-Val de Loire,Loir-et-Cher,M0271,Blois,château musées,6 place du château,Château de Blois,41000,254903333,www.chateaudeblois.fr/2120-le-musee.htm,47.585598,1.331665,4101801,"47.585598,1.331665",2003-02-01
Centre-Val de Loire,Loir-et-Cher,M0274,Naveil,atelier musée Louis Leygue,rue des Venages,,41100,254772613,,47.795395,1.04019,4115801,"47.795395,1.04019",2003-02-01
Corse,Corse du Sud,M5046,Ajaccio,musée national de la maison Bonaparte,Rue saint Charles,Rue Saint-Charles,20000,495214389,musees-nationaux-malmaison.fr/musee-maisonbonaparte/,41.917701,8.73795,2A00402,"41.917701,8.73795",2002-01-06
Corse,Corse du Sud,M0326,Lévie,musée de l'Alta-Rocca,Quartier Prato,,20170,04 95 78 46 34 / 47 98,www.corsedusud.fr/nos-competences/patrimoine-et-culture/musee-departemental-de-laltarocca/,41.704223,9.125161,2A14201,"41.704223,9.125161",2003-02-01
Grand Est,Aube,M0303,Troyes,musée des beaux-arts et d'archéologie,Rue Chrestien de Troyes,Abbaye Saint-Loup,10000,325422009,www.musees-troyes.com,48.300638,4.08003,1038704,"48.300638,4.08003",2003-02-01
Grand Est,Bas-Rhin,M7071,Strasbourg,musée zoologique de l'université Louis Pasteur et de la ville de Strasbourg,29 Boulevard de la Victoire,,67000,368850485,www.musees.strasbourg.eu/musee-zoologique,48.582707,7.764645,6748210,"48.582707,7.764645",2003-02-01
Grand Est,Haute-Marne,M0320,Langres,maison des Lumières Denis Diderot,1 place Pierre Burelle,,52200,325868686,www.musees-langres.fr/maison-des-lumieres-denis-diderot/,47.866417,5.331753,5226901,"47.866417,5.331753",2003-02-01
Grand Est,Haute-Marne,M0322,Nogent-en-Bassigny,musée de la coutellerie,Place Charles de Gaulle,,52800,325318921,www.villedenogent52.fr/page/culture/musee/,48.02758,5.341424,5235301,"48.02758,5.341424",2002-04-18
Grand Est,Haut-Rhin,M7033,Colmar,muséum d'histoire naturelle et d'ethnographie,"11, rue Turenne",,68000,389238415,www.colmar.fr/musee-histoire-naturelle,48.073594,7.35872,6806602,"48.073594,7.35872",2003-02-01
Grand Est,Haut-Rhin,M0036,Mulhouse,musée français du chemin de fer,"2, rue Alfred de Glehn",,68200,03 89 42 83 33 / 25 67,www.citedutrain.com/,47.732372,7.312824,6822405,"47.732372,7.312824",2002-11-18
Grand Est,Haut-Rhin,M0040,Neuf-Brisach,musée Vauban,Porte de Belfort,,68600,389720393,"https:
//www.
neuf-brisach.
fr/Culture-Patrimoine/Musee.
Html",48.016144,7.525674,6823101,"48.016144,7.525674",2003-02-01
Grand Est,Marne,M0310,Pourcy,écomusée de la montagne de Reims,Rue du pré Michaux,Parc Naturel Régional Montagne de Reims,51160,326594444,www.parc-montagnedereims.fr/fr,49.112985,4.029412,5144501,"49.112985,4.029412",2003-02-01
Grand Est,Marne,M0312,Reims,musée Saint-Rémi,"53, rue Simon",Ancienne abbaye,51100,326353690,musees-reims.fr/fr/musees/musee-saint-remi/,49.243111,4.040351,5145404,"49.243111,4.040351",2003-02-01
Grand Est,Meurthe-et-Moselle,M7048,Nancy,muséum-aquarium de Nancy,34 rue Sainte-Catherine,,54000,383329997,www.museumaquariumdenancy.eu/accueil/,48.695072,6.188467,5439502,"48.695072,6.188467",2003-02-01
Grand Est,Meurthe-et-Moselle,M0515,Toul,musée d'art et d'histoire,25 rue Gouvion Saint-Cyr,,54200,383641338,www.toul.fr/?actuellement-au-musee,48.678544,5.89134,5452801,"48.678544,5.89134",2003-02-01
Grand Est,Moselle,M0528,Meisenthal,maison du verre et du cristal,Place Robert Schuman,,57960,387969151,ciav-meisenthal.fr/rubrique/apropos,48.964935,7.352438,5745601,"48.964935,7.352438",2003-02-01
Grand Est,Vosges,M0539,Plombières-les-Bains,musée Louis Français,30 avenue Louis Français,,88370,329660024,www.plombieres-les-bains.fr/fr/musee-du-paysage-louis-francais.html,47.964095,6.458494,8835101,"47.964095,6.458494",2003-02-01
Grand Est,Vosges,M0542,Saint-Dié-des-Vosges,musée Pierre Noël - musée de la vie dans les Hautes-Vosges,Place Georges Trimouille,,88100,329516035,www.ca-saintdie.fr/decouvrir/musee-pierre-noel/actualites,48.295658,6.947961,8841301,"48.295658,6.947961",2003-02-01
Hauts-de-France,Aisne,M0789,La Fère,musée Jeanne d'Aboville,5 rue du Général de Gaulle,,2800,323567191,mjaboville-lafere.fr/,49.661954,3.367748,230401,"49.661954,3.367748",2003-02-01
Hauts-de-France,Nord,M0615,Cambrai,musée municipal,15 rue de L'Epée,,59400,33 (0) 3 27 82 27 90,www.villedecambrai.com/culture/le-musee-des-beaux-arts/,50.17347,3.229635,5912201,"50.17347,3.229635",2003-02-01
Hauts-de-France,Nord,M0617,Cassel,musée de Flandre,26 Grand-Place,Hôtel de la Noble-Cour,59670,359734559,museedeflandre.fr/,50.799755,2.48621,5913501,"50.799755,2.48621",2003-02-01
Hauts-de-France,Nord,M1197,Caudry,musée des dentelles et broderies,,,59540,,musee-dentelle.caudry.fr/fr/le-musee-et-ses-collections/presentation-du-musee.html,50.124558,3.410691,5913901,"50.124558,3.410691",2016-05-26
Hauts-de-France,Nord,M0620,Dunkerque,musée d'art contemporain,Jardin des sculptures,,59240,328295600,www.musees-dunkerque.eu/,51.045271604249905,2.383243784876889,5918304,"51.045271604249905,2.383243784876889",2003-02-01
Hauts-de-France,Nord,M0621,Dunkerque,musée des beaux-arts,,,59140,328295600,www.musees-dunkerque.eu/,51.037327,2.375518,5918301,"51.037327,2.375518",2003-02-01
Hauts-de-France,Nord,M0629,Lille,musée des beaux-arts,Place de la République,,59000,320067800,pba.lille.fr/,50.621132,3.068387,5935002,"50.621132,3.068387",2002-01-06
Hauts-de-France,Nord,M0635,Saint-Amand-les-Eaux,musée de la Tour abbatiale,Grand-Place,Tour abbatiale,59230,327222455,www.saint-amand-les-eaux.fr/musee-de-la-tour-abbatiale,50.448711,3.427672,5952601,"50.448711,3.427672",2003-02-01
Hauts-de-France,Nord,M0638,Valenciennes,musée des beaux-arts,Boulevard Watteau,,59300,327225720,valenciennesmusee.valenciennes.fr/,50.35582,3.53105,5960601,"50.35582,3.53105",2002-01-06
Hauts-de-France,Oise,M0797,Auneuil,musée de la céramique architecturale et industrielle,"432, avenue du Maréchal Foch",,60390,344477847,,49.371534,1.99164,6002901,"49.371534,1.99164",2003-02-01
Hauts-de-France,Oise,M0805,Creil,musée Gallé-Juillet,place François Mitterrand,,60100,344295150,www.creil.fr/le-musee-galle-juillet,49.260793,2.473388,6017501,"49.260793,2.473388",2003-02-01
Hauts-de-France,Oise,M0809,Senlis,musée d'art et d'archéologie,Place Notre-Dame,,60300,344248672,musees.ville-senlis.fr/,49.20653,2.585615,6061202,"49.20653,2.585615",2003-02-01
Hauts-de-France,Oise,M0800,Vendeuil-Caply,musée archéologique de l'Oise,Les Marmousets,,60120,364588000,m-a-o.org/fr/,49.627157,2.316919,6066401,"49.627157,2.316919",2003-02-01
Hauts-de-France,Pas-de-Calais,M0642,Béthune,musée d'ethnologie régionale,211 Avenue du Président Kennedy,,62400,321684074,www.bethune.fr/bethune-brille/lieux-culturels/musee-d-ethnologie-regionale-931.html,50.53621,2.648177,6211901,"50.53621,2.648177",2003-02-01
Hauts-de-France,Pas-de-Calais,M1177,Calais,cité internationale de la dentelle et de la mode,135 quai du commerce,,62100,321004230,www.cite-dentelle.fr/fr/accueil,50.950474,1.860013,6219302,"50.950474,1.860013",2015-11-16
Hauts-de-France,Pas-de-Calais,M0645,Desvres,musée de la céramique,Rue Jean Macé,BP 107,62240,321832323,www.musee-ceramique-desvres.com/,50.666603,1.83876,6226801,"50.666603,1.83876",2003-02-01
Hauts-de-France,Pas-de-Calais,M0646,Etaples,musée Quentovic,8 place du Général de Gaulle,,62630,321097620,etaples-sur-mer.fr/culture/les-musees/musee-quentovic/,50.513895,1.637621,6231801,"50.513895,1.637621",2003-02-01
Hauts-de-France,Pas-de-Calais,M0647,Harnes,musée d'histoire et d'archéologie,53 rue des AC d'AFN,"Maison bourgeoise ""Château Deprez""",62440,321490229,www.ville-harnes.fr/site/musees-a-harnes/,50.451493,2.903226,6241301,"50.451493,2.903226",2003-02-01
Hauts-de-France,Pas-de-Calais,M0651,Saint-Omer,musée Henri Dupuis,9 rue Henri Dupuis,,62500,321382413,www.musees-saint-omer.fr/,50.748349,2.251197,6276502,"50.748349,2.251197",2003-02-01
Hauts-de-France,Pas-de-Calais,M0652,Saint-Pol-sur-Ternoise,musée municipal,Rue Oscar Ricque,Chapelle des Sœurs Noires,62130,03 21 47 00 10 (mairie),www.saintpolsurternoise.fr/articles/culturel,50.381512,2.337066,6276701,"50.381512,2.337066",2003-02-01
Hauts-de-France,Somme,M0817,Saint-Riquier,musée départemental de la vie rurale,BP 3,Abbaye de Saint-Riquier,80135,322282020,www.abbaye-saint-riquier.fr/FR/abbaye.php,50.132403,1.946543,8071601,"50.132403,1.946543",2003-02-01
Île-de-France,Hauts-de-Seine,M0411,Issy-les-Moulineaux,musée français de la carte à jouer et galerie d'histoire de la ville,"16, rue Auguste Gervais",,92130,141238360,www.museecarteajouer.com/,48.822771,2.273453,9204001,"48.822771,2.273453",2003-02-01
Île-de-France,Hauts-de-Seine,M0413,Neuilly-sur-Seine,musée des automates,12 rue du centre,,92200,147452940,www.neuillysurseine.fr/details-d-un-acteur?id=240,48.879608,2.252754,9205101,"48.879608,2.252754",2003-02-01
Île-de-France,Hauts-de-Seine,M5019,Sèvres,musée national de la céramique,Place de la Manufacture,,92310,146293801,,48.817037,2.205733,9207201,"48.817037,2.205733",2002-01-06
Île-de-France,Paris,M1114,Paris,maison de Victor Hugo,6 place des Vosges,Hôtel de Rohan-Guéménée,75004,142721016,www.maisonsvictorhugo.paris.fr/,48.854808,2.366232,7510405,"48.854808,2.366232",2004-07-08
Île-de-France,Paris,M1104,Paris,musée Carnavalet - histoire de Paris,"23, rue de Sévigné",Hôtel Carnavalet,75003,144595858,www.carnavalet.paris.fr/,48.85699,2.362856,7510307,"48.85699,2.362856",2004-07-08
Île-de-France,Paris,M1204,Paris,musée Yves Saint Laurent Paris,5 avenue Marceau,,75116,,museeyslparis.com/,48.873694,2.280339,7511619,"48.873694,2.280339",2017-07-10
Île-de-France,Paris,M1111,Paris,"Petit Palais, musée des beaux-arts de la ville de Paris",Avenue Winston-Churchill,Musée,75008,153434000,www.petitpalais.paris.fr/,48.86609,2.313763,7510808,"48.86609,2.313763",2004-07-08
Île-de-France,Paris,M5005,Paris,musée des arts asiatiques Guimet,"6, place d'Iéna",,75116,156525300,www.museeguimet.fr,48.86425,2.293754,7511603,"48.86425,2.293754",2002-01-06
Île-de-France,Paris,M5059,Paris,musée national de la Légion d'honneur et des ordres de chevalerie,"2, rue de la Légion d'honneur",,75007,140628425,www.legiondhonneur.fr/fr,48.860294,2.324768,7510706,"48.860294,2.324768",2002-01-06
Île-de-France,Seine-et-Marne,M0370,Barbizon,musée de l'école de Barbizon - auberge Ganne,"92, Grande Rue",Auberge Ganne,77630,160662227,www.musee-peintres-barbizon.fr/fr,48.446181,2.602464,7702201,"48.446181,2.602464",2003-02-01
Île-de-France,Seine-et-Marne,M0371,Chelles,musée Alfred Bonno,Place de la République,,77500,164726580,www.chelles.fr/chelles-a-vivre/culture/musee-alfred-bonno/,48.87766,2.591845,7710801,"48.87766,2.591845",2003-02-01
Île-de-France,Seine-et-Marne,M5013,Fontainebleau,musée national du château de Fontainebleau,Château de Fontainebleau - Place du général de Gaulle,Château de Fontainebleau,77300,160715070,www.chateaudefontainebleau.fr/,48.402815,2.696858,7718601,"48.402815,2.696858",2002-01-06
Île-de-France,Seine-et-Marne,M0378,Meaux,musée Bossuet,"5, place Charles-de-Gaulle",Palais Episcopal,77100,164348445,www.musee-bossuet.fr/,48.938016,2.87061,7728401,"48.938016,2.87061",2003-02-01
Île-de-France,Seine-et-Marne,M1171,Meaux,musée de la Grande Guerre,Rue Lazare Ponticelli,,77100,160321418,www.museedelagrandeguerre.eu/,48.955281,2.901461,7728402,"48.955281,2.901461",2007-03-26
Île-de-France,Seine-et-Marne,M0380,Moret-sur-Loing,musée municipal,place de Samois,,77250,160703230,,48.373638,2.815046,7731601,"48.373638,2.815046",2003-02-01
Île-de-France,Seine-et-Marne,M0382,Nemours,musée de préhistoire d'Île-de-France,48 avenue Etienne Dailly,,77140,164785480,www.musee-prehistoire-idf.fr/fr,48.260312,2.714321,7733301,"48.260312,2.714321",2003-02-01
Île-de-France,Val d'Oise,M0432,Argenteuil,musée du vieil Argenteuil,12-14 Boulevard Léon Feix,Hôtel de Ville,95100,134234211,,48.946909,2.249331,9501801,"48.946909,2.249331",2003-02-01
Île-de-France,Val d'Oise,M0434,Guiry-en-Vexin,musée archéologique départemental du Val d'Oise,4 place du Château,,95450,134674507,www.valdoise.fr/608-le-musee-archeologique-departemental-du-val-d-oise.htm,49.108589,1.849395,9529501,"49.108589,1.849395",2003-02-01
Île-de-France,Val d'Oise,M0435,L'Isle-Adam,musée d'art et d'histoire Louis Senlecq,31 Grande rue,,95290,134694544,ville-isle-adam.fr/musee,49.112285,2.21638,9531301,"49.112285,2.21638",2003-02-01
Île-de-France,Val d'Oise,M0437,Montmorency,musée Jean-Jacques Rousseau,"5, rue Jean-Jacques Rousseau","5, rue Jean-Jacques Rousseau",95160,139648013,museejjrousseau.montmorency.fr/fr,48.986892,2.320916,9542801,"48.986892,2.320916",2003-02-01
Île-de-France,Val d'Oise,M0438,Pontoise,musée Tavet Delacour,"4, rue Lemercier",,95300,130380240,www.ville-pontoise.fr/equipement/musee-tavet-delacour#overlay-context=search/node/tavet,49.050929,2.099776,9550001,"49.050929,2.099776",2003-02-01
Île-de-France,Val-de-Marne,M0430,Villiers-sur-Marne,musée Emile Jean,"31, rue Louis-Lenoir",,94350,149304696,www.villiers94.fr/culture-et-sports/patrimoine/musee-emile-jean/,48.826701,2.543144,9407901,"48.826701,2.543144",2003-02-01
Île-de-France,Yvelines,M0392,Montfort-l'Amaury,maison-musée Maurice Ravel,5 rue Maurice-Ravel,Le Belvédère,78490,134860089,www.montfortlamaury.fr/culture-tourisme/sites-et-monuments/la-maison-musee-de-maurice-ravel/,48.776137,1.805464,7842001,"48.776137,1.805464",2003-02-01
Île-de-France,Yvelines,M0397,Saint-Germain-en-Laye,musée municipal Ducastel-Vera de Saint-Germain-en-Laye,38 rue au Pain,,78000,134510512,www.saintgermainenlaye.fr/736/musee-municipal.htm?L=ppapagepapage=,48.794403,2.127681,7855102,"48.794403,2.127681",2003-02-01
Île-de-France,Yvelines,M5077,Versailles,musée national des châteaux de Versailles et de Trianon,,Château de Versailles,78000,130837800,www.chateauversailles.fr/,48.804537,2.134053,7864602,"48.804537,2.134053",2002-01-06
Normandie,Calvados,M0655,Bayeux,Tapisserie de Bayeux - MAHB musée d'art et d'histoire Baron Gérard,"Centre Guillaume le Conquérant, 13bis rue de Nesmond, 14400 Bayeux (Tapisserie de Bayeux) / 37, rue du Bienvenu (MAHB)",Ancien séminaire (Tapisserie de Bayeux) / Ancien palais épiscopal (MAHB),14402,231512550,www.bayeuxmuseum.com/,49.27615187407017,-0.7030630310500277,1404701,"49.27615187407017,-0.7030630310500277",2003-02-01
Normandie,Calvados,M0656,Beaumont-en-Auge,musée Langlois,A la mairie,,14950,231648541,,49.263268,0.107383,1405501,"49.263268,0.107383",2003-02-01
Normandie,Eure,M0705,Les Andelys,musée Nicolas Poussin,Rue Sainte-Clotilde,Maison,27700,232543178,www.ville-andelys.fr/musee-nicolas-poussin-2/,49.245827,1.420009,2701601,"49.245827,1.420009",2003-02-01
Normandie,Manche,M0673,Avranches,musée municipal de l'Avranchin,place Jean de Saint-Avit,,50300,231608329,www.avranches.fr/musee-darts-et-dhistoire__trashed/,48.687696,-1.363384,5002501,"48.687696,-1.363384",2003-02-01
Normandie,Manche,M0685,Saint-Lô,musée des beaux-arts,Place du Champ de Mars,La Source,50000,233725255,www.saint-lo.fr/decouvrir-bouger/culture/musee-d-art-et-d-histoire,49.116174,-1.087574,5050201,"49.116174,-1.087574",2003-02-01
Normandie,Seine-Maritime,M0710,Caudebec-en-Caux,maison des templiers,Rue Thomas-Bazin,,76490,235969591,www.rives-en-seine.fr/pcu/maison-des-templiers/,49.525351,0.725967,7616402,"49.525351,0.725967",2003-02-01
Normandie,Seine-Maritime,M0713,Dieppedalle-Croisset,pavillon Flaubert,18 quai Gustave Flaubert,,76380,276088076,musees-rouen-normandie.fr/fr,49.435017,1.031203,7615701,"49.435017,1.031203",2003-02-01
Normandie,Seine-Maritime,M0714,Eu,musée Louis Philippe,Place d'Orléans,Château d'Eu,76260,227282076,www.chateau-eu.fr/,50.049138,1.418369,7625501,"50.049138,1.418369",2003-02-01
Normandie,Seine-Maritime,M0721,Le Havre,musée de l'armateur,3 quai de l'Ile,,76600,235190985,www.lehavre.fr/annuaire/maison-de-larmateur,49.486857,0.112815,7635105,"49.486857,0.112815",2003-02-01
Normandie,Seine-Maritime,M0727,Neufchâtel-en-Bray,musée Mathon-Durand,53 Grande Rue Saint-Pierre,,76270,235930655,www.neufchatelenbray.fr/vivre-a-neufchatel-en-bray/animations-culturelles/musee/,49.730766,1.436734,7646201,"49.730766,1.436734",2003-02-01
Normandie,Seine-Maritime,M0730,Rouen,musée de la céramique,1 rue Faucon,Hôtel d'Hocqueville,76000,235073174,museedelaceramique.fr/fr,49.445543,1.093846,7654010,"49.445543,1.093846",2002-01-06
Normandie,Seine-Maritime,M0729,Rouen,musée des beaux-arts,Esplanade Marcel Duchamp,,76000,235712840,mbarouen.fr/fr,49.44499,1.09396,7654005,"49.44499,1.09396",2002-01-06
Normandie,Seine-Maritime,M0736,Villequier,musée Victor Hugo,Rue Ernest Binet,,76490,235567831,www.museevictorhugo.fr/fr/home/,49.511951,0.673374,7674201,"49.511951,0.673374",2003-02-01
Nouvelle-Aquitaine,Charente,M0822,Cognac,musée municipal du Cognac,"48, boulevard Denfert-Rochereau",Hôtel Dupuy d'Angeac,16100,545320725,www.ville-cognac.fr/Les-Musees-de-Cognac-3493.html,45.695744,-0.326186,1610201,"45.695744,-0.326186",2003-02-01
Nouvelle-Aquitaine,Charente-Maritime,M0828,La Rochelle,musée protestant,"2, rue Saint-Michel",Temple du Culte Réformé,17000,546413284,www.protestantisme-museelarochelle.fr/,46.159482,-1.150024,1730005,"46.159482,-1.150024",2003-02-01
Nouvelle-Aquitaine,Charente-Maritime,M0829,Marans,musée Capon,"62, rue d'Aligre",,17230,546011287,,46.309723,-0.991941,1721801,"46.309723,-0.991941",2003-02-01
Nouvelle-Aquitaine,Charente-Maritime,M0837,Saintes,musée de l'Echevinage,Rue Alsace-Lorraine,,17100,546935239,www.ville-saintes.fr/decouvrir-sortir/culture/musees/,45.745991,-0.633096,1741501,"45.745991,-0.633096",2003-02-01
Nouvelle-Aquitaine,Charente-Maritime,M0834,Saint-Pierre-d'Oléron,musée oléronais Aliénor d'Aquitaine,9 place Gambetta,,17310,546750516,www.ile-oleron-marennes.com/preparer-mes-vacances/loisirs/patrimoine-et-musees/le-musee-de-l-ile-d-oleron-111708,45.942781,-1.307498,1738501,"45.942781,-1.307498",2003-02-01
Nouvelle-Aquitaine,Creuse,M0503,Guéret,musée d'art et d'archéologie,"22, avenue de la Sénatorerie",Hôtel de la Sénatorerie,23000,555520720,www.ville-gueret.fr/creative/musee-dart-darcheologie/,46.165838,1.870758,2309601,"46.165838,1.870758",2003-02-01
Nouvelle-Aquitaine,Deux-Sèvres,M0840,Bressuire,musée municipal,Place de l'Hôtel de Ville,,79300,549743224,www.agglo2b.fr/culture/musees/musee-de-bressuire,46.841873,-0.493243,7904901,"46.841873,-0.493243",2003-02-01
Nouvelle-Aquitaine,Deux-Sèvres,M0842,Niort,musée ethnographique et archéologique du Donjon,Rue Du Guesclin,,79000,549281428,www.niortagglo.fr/sortir-visiter/patrimoine-et-musees/musee-du-donjon/index.html,46.329091,-0.509253,7919103,"46.329091,-0.509253",2003-02-01
Nouvelle-Aquitaine,Dordogne,M5014,Les Eyzies,musée national de préhistoire,1 rue du musée,,24620,553064545,musee-prehistoire-eyzies.fr/,44.93608,1.01363,2417204,"44.93608,1.01363",2002-01-06
Nouvelle-Aquitaine,Dordogne,M0053,Montignac-sur-Vézère,musée Eugène Le Roy,Place Bertran-de-Born,Office du tourisme,24290,553518260,,45.063722,1.163336,2429101,"45.063722,1.163336",2003-02-01
Nouvelle-Aquitaine,Dordogne,M0057,Périgueux,musée d'art et d'archéologie du Périgord,"22, cours Tourny",musée,24000,553064070,www.perigueux-maap.fr/,45.186039,0.72395,2432201,"45.186039,0.72395",2003-02-01
Nouvelle-Aquitaine,Gironde,M0063,Blaye,musée d'art et d'histoire du pays blayais,Citadelle de Blaye,Pavillon de La Place,33390,682347266,www.blaye.fr/culture-et-loisirs/musees/80-musee-d-histoire-et-d-archeologie.html,45.126358,-0.66364,3305801,"45.126358,-0.66364",2003-02-01
Nouvelle-Aquitaine,Gironde,M0066,Bordeaux,musée des arts décoratifs et du design,39 rue Bouffard,Hôtel de Lalande,33000,556101400,madd-bordeaux.fr/,44.838956,-0.579686,3306306,"44.838956,-0.579686",2003-02-01
Nouvelle-Aquitaine,Gironde,M0071,La Réole,musée municipal,Esplanade Charles de Gaulle,,33190,556611011,,44.581128,-0.041074,3335201,"44.581128,-0.041074",2003-02-01
Nouvelle-Aquitaine,Gironde,M0072,Libourne,musée des beaux-arts et d'archéologie,42 Place Abel Surchamp,Hôtel de ville,33500,557553344,www.libourne.fr/culturelle/musee-des-beaux-arts,44.914487,-0.245068,3324301,"44.914487,-0.245068",2003-02-01
Nouvelle-Aquitaine,Gironde,M0074,Saint-Emilion,musée d'histoire et d'archéologie,s'adresser à la mairie,,33330,557247209,www.saint-emilion-histoire.fr,44.89461759278015,-0.15570843063469111,3339401,"44.89461759278015,-0.15570843063469111",2003-02-01
Nouvelle-Aquitaine,Landes,M0078,Hastingues,musée départemental d'Histoire et d'Archéologie,785 route de l'abbaye,Abbaye d'Arthous,40300,558730389,www.landes.fr/abbaye-arthous,43.52735,-1.12142,4012001,"43.52735,-1.12142",2003-02-01
Nouvelle-Aquitaine,Landes,M0080,Sabres,écomusée de la Grande Lande,Route de Solférino,,40630,558083131,www.marqueze.fr/,44.149414,-0.749433,4024601,"44.149414,-0.749433",2003-02-01
Nouvelle-Aquitaine,Lot-et-Garonne,M0088,Marmande,musée municipal Albert Marzelles,15 rue Abel Boyé,,47200,553644204,mairie-marmande.fr/index.php/le-musee-marzelles,44.498918,0.166067,4715701,"44.498918,0.166067",2003-02-01
Nouvelle-Aquitaine,Lot-et-Garonne,M0090,Sauveterre-la-Lémance,musée municipal,Le bourg,Mairie de Sauveterre-La-Lémance,47500,553407303,www.sauveterre-prehistoire.fr/,44.597987,1.017451,4729201,"44.597987,1.017451",2003-02-01
Nouvelle-Aquitaine,Lot-et-Garonne,M0091,Villeneuve-sur-Lot,musée municipal de Gajac,"2, rue des Jardins",,47300,553404800,www.ville-villeneuve-sur-lot.fr/le-musee-de-gajac-78.html,44.405095,0.707815,4732301,"44.405095,0.707815",2003-02-01
Occitanie,Ariège,M1090,Lavelanet,musée du textile et du peigne en corne,"65, rue Jean Canal",,9300,561038919,www.museedutextileariege.fr/,42.929968,1.845351,916001,"42.929968,1.845351",2003-02-01
Occitanie,Ariège,M0544,Le Mas-d'Azil,musée de la préhistoire,place de l'Eglise,,9290,561699722,www.sites-touristiques-ariege.fr/grotte-du-mas-dazil/,43.079849,1.360358,918101,"43.079849,1.360358",2003-02-01
Occitanie,Aude,M0443,Limoux,musée Petiet,32 Promenade du Tivoli,,11300,963683454,www.limoux.fr/services-municipaux/joomlannuaire/fiche/322-musee-petiet/1-services-municipaux,43.053489,2.2143,1120601,"43.053489,2.2143",2003-02-01
Occitanie,Aveyron,M0548,Espalion,musée Joseph Vaylet,38 rue Droite,,12500,565440918,musees.aveyron.fr/thematiques/mus%C3%A9e%20joseph%20vaylet%20scaphandre,44.521365,2.762702,1209602,"44.521365,2.762702",2003-02-01
Occitanie,Gard,M0448,Alès,musée-bibliothèque Pierre-André Benoit,Rue de Brouzen,Pôle culturel de Rochebelle,30100,466869869,www.museepab.fr,44.130014,4.070265,3000701,"44.130014,4.070265",2003-02-01
Occitanie,Gard,M0451,Beaucaire,musée municipal de la Vignasse,Château de Beaucaire,La Vignasse,30300,466599007,,43.808182,4.642712,3003201,"43.808182,4.642712",2003-02-01
Occitanie,Gard,M1079,Saint-Jean-du-Gard,maison Rouge - musée des vallées cévenoles,35 grand rue,,30270,466851048,www.maisonrouge-musee.fr/,44.104188,3.887004,3026901,"44.104188,3.887004",2003-02-01
Occitanie,Gers,M0572,Lectoure,musée d'archéologie,Place du Général-de-Gaulle,Hôtel de ville,32700,562687022,www.patrimoine-musees-gers.fr/le-reseau/musee-de-lectoure/,43.933873,0.638007,3220801,"43.933873,0.638007",2003-02-01
Occitanie,Haute-Garonne,M0558,Martres-Tolosane,musée municipal,place du Donjon,,31220,561988689,,43.199447,1.010287,3132401,"43.199447,1.010287",2003-02-01
Occitanie,Haute-Garonne,M0563,Toulouse,musée Saint-Raymond,1ter place Saint-Sernin,,31000,561223144,saintraymond.toulouse.fr/,43.608897,1.441776,3155502,"43.608897,1.441776",2003-02-01
Occitanie,Haute-Garonne,M7013,Toulouse,muséum d'histoire naturelle,35 allées Jules Guesde,Jardin des Plantes,31000,567738400,www.museum.toulouse.fr/,43.594189,1.448945,3155509,"43.594189,1.448945",2002-01-06
Occitanie,Hautes-Pyrénées,M0590,Mauvezin,musée-château Gaston Phébus,,Château,65130,562391027,www.chateaudemauvezin.com/,43.114294,0.282555,6530601,"43.114294,0.282555",2003-02-01
Occitanie,Hérault,M0469,Bouzigues,musée de l'étang de Thau,Quai du Port de Pêche,,34140,467783357,patrimoine.agglopole.fr/musee-de-letang-de-thau/,43.446763,3.660714,3403901,"43.446763,3.660714",2003-02-01
Occitanie,Hérault,M0475,Minerve,musée archéologique,Place du Monument-aux-morts,,34210,468912292,www.minervois-caroux.com/fr/decouvrir/jardin-musees-et-visites-villages/3410:musee-d-archeologie-et-de-paleontologie-de-minerve.html,43.354299,2.746165,3415801,"43.354299,2.746165",2003-02-01
Occitanie,Lot,M0576,Cahors,musée Henri Martin,"792, rue Emile Zola",Ancien Palais Episcopal,46000,565208866,cahorsagglo.fr/musees-et-salles-dexpo?field_categorie_annuaire_tid=885,44.448506,1.438286,4604201,"44.448506,1.438286",2003-02-01
Occitanie,Lot,M0577,Figeac,musée d'histoire de Figeac,Espace Henri Vayssettes,,46100,565503108,ville-figeac.fr/culture-sport-loisirs/culture/musee-histoire-figeac,44.613443,2.016469,4610201,"44.613443,2.016469",2003-02-01
Occitanie,Lot,M0581,Martel,musée gallo-romain d'Uxellodunum,Palais de la Raymondie,Mairie,46600,565373003,www.martel.fr/musee-martel-lot_fr.html,44.93690534377903,1.609271436294827,4618501,"44.93690534377903,1.609271436294827",2003-02-01
Occitanie,Lot,M0585,Vayrac,musée municipal,Place Luctérius,,46110,565324026,www.vayrac.fr/tourisme/uxellodunum/,44.952495,1.703507,4633001,"44.952495,1.703507",2003-02-01
Occitanie,Pyrénées-Orientales,M0493,Perpignan,musée archéologique de Ruscino,Château Roussillon,Site archéologique de Ruscino,66000,468674717,www.mairie-perpignan.fr/culture-patrimoine/patrimoine/le-site-archeologique-de-ruscino,42.709124,2.945875,6613605,"42.709124,2.945875",2003-02-01
Occitanie,Tarn,M0593,Andillac (Le Cayla),musée Eugénie et Maurice Guérin,Château du Cayla,,81140,563330168,musees-departementaux.tarn.fr/index.php?id=cayla-presentation,44.010155,1.899025,8101201,"44.010155,1.899025",2003-02-01
Occitanie,Tarn,M0598,Gaillac,musée de l'abbaye Saint-Michel,Place Saint-Michel,,81600,05 63 41 03 81/63 81 20 25,www.ville-gaillac.fr/culture/musee-de-labbaye,43.897983,1.895761,8109903,"43.897983,1.895761",2003-02-01
Provence-Alpes-Côte-d'Azur,Alpes-de-Haute-Provence,M0856,Barcelonnette,musée de la vallée,"10, avenue de la Libération",,4400,492812715,www.museedelavallee.fr/,44.387609,6.655077,401901,"44.387609,6.655077",2003-02-01
Provence-Alpes-Côte-d'Azur,Alpes-de-Haute-Provence,M0860,Moustiers-Sainte-Marie,musée de la faïence,,Espace Christiane Vivier,4360,492746164,www.moustiers.fr/fr/musee-faience,43.846892,6.220175,413501,"43.846892,6.220175",2003-02-01
Provence-Alpes-Côte-d'Azur,Alpes-de-Haute-Provence,M0862,Riez-la-Romaine,musée archéologique,Route de Marseille,,4500,492722243,www.musees-mediterranee.org/portail/index.php?menu=1&num_musee=109,43.815415,6.08717,416601,"43.815415,6.08717",2003-02-01
Provence-Alpes-Côte-d'Azur,Alpes-Maritimes,M0869,Biot,musée d'histoire locale,9 rue Saint-Sébastien,,6410,493655454,www.biot.fr/culture/musees-et-art/les-musees/musee-dhistoire-de-ceramique-biotoises/,43.627369,7.098469,601802,"43.627369,7.098469",2003-02-01
Provence-Alpes-Côte-d'Azur,Alpes-Maritimes,M0878,Menton,musée des beaux-arts,3 avenue de la Madone,Palais de Carnolès,6500,493354971,www.menton.fr/Musee-des-Beaux-Arts-Palais-de-Carnoles.html?oaq,43.766659,7.4884,608305,"43.766659,7.4884",2003-02-01
Provence-Alpes-Côte-d'Azur,Alpes-Maritimes,M0881,Nice,musée Masséna,65 rue de France,Palais Masséna,6000,493911910,www.nice.fr/fr/culture/musees-et-galeries/musee-massena-le-musee,43.695672,7.259251,608802,"43.695672,7.259251",2002-01-06
Provence-Alpes-Côte-d'Azur,Alpes-Maritimes,M5029,Nice,musée national Message biblique Marc Chagall,Avenue du Docteur-Ménard,,6000,493538720,musees-nationaux-alpesmaritimes.fr/chagall/,43.70922,7.2688,608811,"43.70922,7.2688",2002-01-06
Provence-Alpes-Côte-d'Azur,Bouches-du-Rhône,M0894,Aix-en-Provence,musée Granet,Place Saint-Jean-de-Malte,Palais de Malte,13100,442528830,www.museegranet-aixenprovence.fr/nc/accueil.html,43.494315,5.410889,1300104,"43.494315,5.410889",2002-01-06
Provence-Alpes-Côte-d'Azur,Bouches-du-Rhône,M0899,Aix-en-Provence,musée Paul Arbaud,2A rue du Quatre-Septembre,,13100,442383895,www.aixenprovence.fr/Musee-Arbaud,43.526201,5.449931,1300106,"43.526201,5.449931",2003-02-01
Provence-Alpes-Côte-d'Azur,Bouches-du-Rhône,M0911,Maillane,musée Frédéric Mistral,11 rue Lamartine,,13910,490957406,museemistral.fr/,43.831079,4.782653,1305201,"43.831079,4.782653",2003-02-01
Provence-Alpes-Côte-d'Azur,Bouches-du-Rhône,M0923,Martigues,musée Ziem,"9, Boulevard du 14 juillet",,13500,442413960,www.ville-martigues.fr/loisirs/culture/musee-ziem,43.408336,5.054107,1305601,"43.408336,5.054107",2003-02-01
Provence-Alpes-Côte-d'Azur,Bouches-du-Rhône,M0926,Saint-Rémy-de-Provence,musée des Alpilles Pierre de Brun,1 Place Favier,Place Favier,13210,490926824,www.mairie-saintremydeprovence.com/que-faire-a-saint-remy/envie-de-culture/musee-des-alpilles/,43.789218,4.831075,1310001,"43.789218,4.831075",2003-02-01
Provence-Alpes-Côte-d'Azur,Bouches-du-Rhône,M0929,Salon-de-Provence,musée de l'Emperi,,Château de l'Empéri,13300,490562236,www.salondeprovence.fr/index.php/emperi,43.640227,5.096576,1310301,"43.640227,5.096576",2003-02-01
Provence-Alpes-Côte-d'Azur,Hautes-Alpes,M0866,Gap,musée départemental des Hautes-Alpes,6 avenue Maréchal Foch,,5000,486153070,collections-musee.hautes-alpes.fr/,44.562625,6.085573,506101,"44.562625,6.085573",2003-02-01
Provence-Alpes-Côte-d'Azur,Var,M9007,Draguignan,musée de l'artillerie,Quartier Bonaparte avenue de La Grande Armée,Ecole de l'Artillerie,83300,483081385,artillerie.asso.fr/musee/,43.529648,6.495058,8305004,"43.529648,6.495058",2006-08-29
Provence-Alpes-Côte-d'Azur,Var,M0936,Fréjus,musée archéologique,Place Calvini,,83600,494521578,www.ville-frejus.fr/fr/decouvrir-et-sortir/histoire-et-patrimoine/musees-et-monuments/musee-archeologique/,43.433569,6.736721,8306101,"43.433569,6.736721",2003-02-01
Provence-Alpes-Côte-d'Azur,Var,M0940,Saint-Raphaël,musée archéologique,Parvis de la vieille l'égise rue des templiers,place de la Vieille Eglise,83700,494192575,www.ville-saintraphael.fr/cultivee/musees/musee-archeologique,43.42598957834058,6.769881214825955,8311801,"43.42598957834058,6.769881214825955",2003-02-01
Provence-Alpes-Côte-d'Azur,Vaucluse,M0947,Avignon,musée du Petit Palais,Place du Palais des Papes,,84000,490864458,www.petit-palais.org/,43.951088,4.806317,8400702,"43.951088,4.806317",2003-02-01
Provence-Alpes-Côte-d'Azur,Vaucluse,M0949,Carpentras,musées Comtadin et Duplessis,234 Boulevard Albert Durand,,84200,490630492,inguimbertine.carpentras.fr/,44.0543,5.045479,8403103,"44.0543,5.045479",2003-02-01
Provence-Alpes-Côte-d'Azur,Vaucluse,M0953,Cavaillon,musée Jouve,20 rue Chabran,,84300,490722686,www.cavaillon.fr/le-musee-jouve.html,43.837324,5.038776,8403503,"43.837324,5.038776",2003-02-01
Provence-Alpes-Côte-d'Azur,Vaucluse,M0956,Fontaine-de-Vaucluse,musée-bibliothèque Pétrarque,Rive gauche de la Sorgue,,84800,490205344,www.vaucluse.fr/culture-et-patrimoine/les-musees-departementaux/le-musee-bibliotheque-francois-petrarque-a-fontaine-de-vaucluse-866.html,43.91753,5.056541,8413901,"43.91753,5.056541",2003-02-01
Provence-Alpes-Côte-d'Azur,Vaucluse,M0959,Orange,musée municipal,rue Madeleine Roch,Hôtel,84100,490511760,www.ville-orange.fr/article193.html,44.135887,4.807526,8408701,"44.135887,4.807526",2003-02-01
